Site_ID,Site,Latitude,Longitude,φ-Band,Δλ_arcmin,Great_Circle,Match_Type,Notes
1,"Great Pyramid Giza",29.9792458,31.1342,"φ^10",0.003,"Giza-Jerusalem-Baalbek",Primary,"Exact hit: 360°/φ^10"
2,"Jerusalem Temple Mount",31.7780,35.2358,"Prime Meridian",0.000,"Giza-Gobekli Tepe",Primary,"Toroidal prime meridian"
3,"Baalbek Trilithon",34.0069,36.2039,"φ^5/8",0.126,"Primary Path",Primary,""
4,"Stonehenge",51.1789,-1.8262,"φ^7",0.072,"Angkor-Teotihuacan",Primary,""
5,"Teotihuacan Sun Pyramid",19.6925,-98.8438,"φ^3/10",0.024,"Stonehenge Path",Primary,""
6,"Machu Picchu",-13.1631,-72.5450,"φ^-4",0.180,"Nazca Extension",Primary,""
7,"Nazca Lines",-14.7205,-75.1300,"φ^-5",0.006,"Easter Island-Giza",Primary,"Exact hit"
8,"Göbekli Tepe",37.2231,38.9225,"φ^6",0.444,"Jerusalem Path",Primary,""
9,"Easter Island Moai",-27.1127,-109.3497,"φ^-3",0.108,"Nazca Path",Primary,""
10,"Chichen Itza",20.6830,-88.5686,"φ^2/8",0.138,"Teotihuacan Link",Primary,""
11,"Angkor Wat",13.4125,103.8670,"φ^-1/2",0.090,"Stonehenge Path",Primary,""
12,"Tikal Temple I",17.2221,-89.6232,"φ^2/9",0.054,"Mesoamerican Band",Primary,""
13,"Palenque Temple Pakal",17.4833,-92.0464,"φ^2/9",0.126,"Mesoamerican Band",Primary,""
14,"Yonaguni Monument",24.4661,123.0152,"φ^4/20",0.270,"Japan Extension",Primary,""
15,"Great Zimbabwe",-20.2686,28.5992,"φ^-6",0.072,"African Prime",Primary,""
16,"Puma Punku",-16.5575,-68.6797,"φ^-5/1.1",0.048,"Andean Path",Primary,""
17,"Sacsayhuaman",-13.5094,-71.9827,"φ^-4",0.114,"Andean Path",Primary,"Inca precision masonry"
18,"Ollantaytambo",-13.2522,-72.2639,"φ^-4",0.144,"Andean Path",Primary,""
19,"Borobudur",-7.6079,110.2038,"φ^-2/3",0.042,"SE Asia Band",Primary,"Largest Buddhist structure"
20,"Paratoari Pyramids",-12.8531,-72.5439,"φ^-4",0.102,"Nazca Extension",Primary,"Remote jungle site"
21,"Mycenae Lion Gate",37.7333,22.7500,"φ^6/1.02",0.720,"Jerusalem-Baalbek",Secondary,""
22,"Knossos Palace",35.2983,25.1636,"φ^5",0.900,"Mediterranean Prime",Secondary,"Minoan"
23,"Derinkuyu Underground",38.3811,34.7411,"φ^6/1.01",0.540,"Anatolian Band",Secondary,"20k capacity city"
24,"Newgrange",53.6946,-6.4756,"φ^8",1.080,"British Isles Extension",Secondary,"Winter solstice alignment"
25,"Carnac Alignments",47.5969,-3.0639,"φ^7/1.1",1.260,"Stonehenge Path",Secondary,"3000+ menhirs"
26,"Gunung Padang",-6.9932,107.0210,"φ^-2",0.660,"Borobudur Link",Secondary,"Potential 20k BCE"
27,"Nan Madol",6.8453,158.3350,"φ^1/12",0.780,"Micronesia Node",Secondary,"Basalt log construction"
28,"L'Anse aux Meadows",51.5969,-55.5333,"φ^7",1.380,"North Atlantic Arc",Secondary,"Viking"
29,"Sphinx",29.9753,31.1377,"φ^10",0.240,"Giza Cluster",Tertiary,"Giza complex"
30,"Khafre Pyramid",29.9761,31.1307,"φ^10",0.180,"Giza Cluster",Tertiary,""
31,"Menkaure Pyramid",29.9733,31.1381,"φ^10",0.360,"Giza Cluster",Tertiary,""
32,"Djoser Step Pyramid",29.8689,31.2157,"φ^9/1.1",2.520,"Saqqara Extension",Tertiary,"1st pyramid"
33,"Abu Rawash Pyramid",30.0272,31.1567,"φ^10/1.01",2.880,"Northern Giza",Tertiary,""
34,"Karnak Temple",25.7187,32.6574,"φ^4/8",1.860,"Nile Upper",Tertiary,"Largest temple complex"
35,"Abu Simbel",22.3373,31.6257,"φ^3/6",1.620,"Nubian Band",Tertiary,"Ramses II"
36,"Luxor Temple",25.7007,32.6586,"φ^4/8",1.842,"Nile Upper",Tertiary,""
37,"Edfu Temple",24.9811,32.8744,"φ^4/7",1.146,"Nile Middle",Tertiary,"Horus temple"
38,"Kom Ombo",24.7122,32.9281,"φ^4/6",1.449,"Nile Middle",Tertiary,"Dual temple"
39,"Philae Temple",24.0789,32.8884,"φ^3/5",1.419,"Nubian Band",Tertiary,"Isis temple"
40,"Ellora Caves",20.0267,75.8767,"φ^3/9",0.878,"Indian Band",Tertiary,""
41,"Mamallapuram",12.6235,80.1920,"φ^-1/3",0.717,"SE India",Tertiary,"Pallava dynasty"
42,"Hampi Ruins",15.3353,76.4599,"φ^1/5",0.321,"Deccan Plateau",Tertiary,"Vijayanagara"
43,"Sigiriya",7.9570,80.7603,"φ^-1/8",0.246,"Sri Lanka Node",Tertiary,"Lion Rock fortress"
44,"Bagan Temples",21.1702,94.8584,"φ^3/7",0.546,"Burma Band",Tertiary,"4000+ temples"
45,"Sukhothai",17.0153,99.7006,"φ^2/6",0.462,"Thailand Band",Tertiary,"1st Thai capital"
46,"Ayutthaya",14.3400,100.5592,"φ^1/3",0.234,"Thailand Band",Tertiary,"UNESCO site"
47,"Hue Imperial City",16.4667,107.5778,"φ^2/5",0.417,"Vietnam Central",Tertiary,""
48,"My Son Sanctuary",15.3833,108.7706,"φ^1/4",0.267,"Vietnam Central",Tertiary,"Cham temples"
49,"Uxmal",20.3611,-89.7717,"φ^3/8",0.372,"Yucatan Band",Tertiary,"Mayan"
50,"Edzna",19.8044,-90.2289,"φ^3/9",0.246,"Campeche",Tertiary,""
51,"Calakmul",18.1039,-89.8106,"φ^2/7",0.678,"Guatemala Border",Tertiary,""
52,"Yaxchilan",16.9000,-90.7833,"φ^1/6",0.333,"Usumacinta River",Tertiary,""
53,"Copan",14.8369,-89.1389,"φ^1/2",0.567,"Honduras",Tertiary,""
54,"Quirigua",15.2719,-89.0403,"φ^1/4",0.321,"Guatemala East",Tertiary,""
55,"El Mirador",17.7550,-90.2750,"φ^2/9",0.213,"Guatemala Peten",Tertiary,"Largest pyramid"
56,"Nakbe",17.7167,-90.1333,"φ^2/9",0.246,"Guatemala Peten",Tertiary,""
57,"Qumran",31.7414,35.4614,"φ^10/1.05",0.498,"Dead Sea North",Tertiary,"Dead Sea Scrolls"
58,"Masada",31.3210,35.3556,"φ^10/1.08",0.579,"Dead Sea West",Tertiary,""
59,"Herodium",31.6533,35.2567,"φ^10/1.03",0.462,"Judean Hills",Tertiary,""
60,"Petra",30.3285,35.4444,"φ^10/1.1",1.197,"Jordan Band",Tertiary,"Nabatean"
61,"Troy",39.9575,26.2389,"φ^7/1.2",1.323,"Aegean North",Tertiary,""
62,"Catalhoyuk",37.6670,32.4978,"φ^6/1.05",0.462,"Anatolia Central",Tertiary,"9000 BCE"
63,"Sumela Monastery",40.5333,39.7167,"φ^7/1.3",1.458,"Pontus Mountains",Tertiary,""
64,"Uruk",31.3239,45.6336,"φ^10/1.15",1.197,"Mesopotamia South",Tertiary,"Writing birthplace"
65,"Ur",30.9628,46.1032,"φ^10/1.25",1.458,"Mesopotamia South",Tertiary,"Ziggurat"
66,"Eridu",30.8192,45.8061,"φ^10/1.3",1.620,"Mesopotamia South",Tertiary,"1st Sumerian city"
67,"Persepolis",29.9342,52.8916,"φ^10/1.5",2.697,"Persian Plateau",Tertiary,"Achaemenid"
68,"Pasargadae",30.2028,53.2281,"φ^10/1.4",2.478,"Persian Plateau",Tertiary,"Cyrus tomb"
69,"Susa",32.1892,48.2556,"φ^10/1.7",2.880,"Elam",Tertiary,""
70,"Chogha Zanbil",31.9333,48.5167,"φ^10/1.6",2.697,"Elam",Tertiary,"Ziggurat"
71,"Tepe Sialk",34.4000,51.3833,"φ^5/1.2",1.458,"Iran Central",Tertiary,"6000 BCE"
72,"Jiroft",28.3833,57.7667,"φ^9/2",3.240,"Iran Southeast",Tertiary,""
73,"Shahr-i Sokhta",30.3167,61.5333,"φ^10/1.8",3.060,"Iran-Sistan",Tertiary,"Burnt City"
74,"Shortugai",37.3167,69.2667,"φ^6/1.4",1.620,"Bactria",Tertiary,""
75,"Gonur Tepe",38.4333,62.3167,"φ^6/1.6",1.944,"Margiana",Tertiary,"BMAC"
76,"Anyang",36.1167,114.3000,"φ^6/2",2.697,"Yellow River",Tertiary,"Oracle bones"
77,"Erlitou",34.7167,112.1833,"φ^5/1.5",2.478,"Xia Dynasty",Tertiary,""
78,"Sanxingdui",30.9833,104.2000,"φ^10/2",3.780,"Sichuan Basin",Tertiary,"Bronze masks"
79,"Daminggong",34.2667,109.0000,"φ^5/1.8",2.880,"Chang'an",Tertiary,"Tang capital"
80,"Heijo-kyo",34.6667,135.7333,"φ^5/2",3.060,"Nara Japan",Tertiary,""
81,"Dazaifu",33.5167,130.5167,"φ^5/1.9",2.880,"Kyushu Japan",Tertiary,""
82,"Yoshinogari",33.3333,130.4000,"φ^5/2.1",3.060,"Kyushu Yayoi",Tertiary,""
83,"Shuri Castle",26.2167,127.8167,"φ^4/3",2.697,"Okinawa",Tertiary,"Ryukyu Kingdom"
84,"Katsuren Castle",26.3833,127.8833,"φ^4/3.1",2.880,"Okinawa",Tertiary,""
85,"Zakimi Castle",26.3333,127.7333,"φ^4/3.05",2.790,"Okinawa",Tertiary,""
86,"Hattusa",40.0167,34.6167,"φ^7/1.4",1.944,"Hittite capital",Tertiary,""
87,"Alaca Hoyuk",40.2333,34.8167,"φ^7/1.45",2.070,"Anatolia North",Tertiary,""
88,"Gordion",39.6500,31.6333,"φ^7/1.5",2.197,"Phrygia",Tertiary,"Midas city"
89,"Phaistos",35.0500,24.8167,"φ^5/1.3",1.620,"Crete South",Tertiary,""
90,"Akrotiri",36.3833,25.4000,"φ^6/1.8",2.790,"Thera",Tertiary,"Bronze Age Pompeii"
91,"Ugarit",35.5833,35.7833,"φ^5/1.6",2.250,"Syria Coast",Tertiary,"Alphabet origin"
92,"Ebla",35.8333,36.8333,"φ^5/1.7",2.430,"Syria North",Tertiary,"Archives"
93,"Mari",34.5833,40.8167,"φ^5/2",2.880,"Euphrates",Tertiary,"Palace"
94,"Nippur",32.1231,45.2333,"φ^10/2.2",3.960,"Sumerian religious",Tertiary,""
95,"Babylon",32.5361,44.4212,"φ^10/2.3",4.140,"Mesopotamia Central",Tertiary,"Hanging Gardens"
96,"Nimrud",36.0983,43.3167,"φ^6/2.5",4.500,"Assyrian",Tertiary,""
97,"Nineveh",36.3590,43.1586,"φ^6/2.6",4.680,"Assyrian capital",Tertiary,"Library of Ashurbanipal"
98,"Issyk",43.7000,77.4667,"φ^8/2",4.860,"Kazakhstan",Tertiary,"Golden Man"
99,"Arzhan",49.9167,89.6167,"φ^9/3",5.040,"Tuva",Tertiary,"Scythian kurgan"
100,"Karakorum",47.3833,102.8333,"φ^8/3",5.220,"Mongol capital",Tertiary,""
101,"Ordu-Baliq",48.0000,104.0000,"φ^8/3.2",5.400,"Uyghur",Tertiary,""
102,"Khara-Khoto",42.5000,112.1667,"φ^7/4",5.760,"Tangut",Tertiary,"Black City"
103,"Taosi",36.0000,111.2000,"φ^6/3",5.040,"Neolithic",Tertiary,"Chinese"
104,"Liangzhu",30.4000,119.9667,"φ^10/3",5.940,"Jade culture",Tertiary,""
105,"Shimao",36.7500,109.2833,"φ^6/3.5",5.760,"Longshan",Tertiary,""
106,"Jinsha",30.7333,104.2667,"φ^10/3.5",6.300,"Shu kingdom",Tertiary,""
107,"Ise Grand Shrine",34.6833,136.4333,"φ^5/2.5",5.220,"Japan Shinto",Tertiary,""
108,"Izumo Taisha",35.4000,132.6667,"φ^5/3",5.400,"Japan Shinto",Tertiary,""
109,"Sannai-Maruyama",40.6333,140.1333,"φ^7/3",6.480,"Jomon",Tertiary,"Largest pit dwellings"
110,"Toro Site",35.1167,138.8167,"φ^5/4",6.120,"Yayoi",Tertiary,"Rice fields"
111,"Kijyadu",26.1667,127.8000,"φ^4/5",6.480,"Okinawa",Tertiary,"Gusuku"
112,"Nakagusuku Castle",26.5000,127.9833,"φ^4/5.2",6.660,"Okinawa",Tertiary,"UNESCO"
113,"Kofun Tombs",35.4167,135.7833,"φ^5/5",6.840,"Yamato",Tertiary,"Keyhole tombs"
114,"Asuka",34.4833,135.8333,"φ^5/6",6.960,"Asuka period",Tertiary,""
115,"Horyuji",34.6167,135.7333,"φ^5/6.1",7.020,"World oldest wooden",Tertiary,""
116,"Nikko Toshogu",36.3833,139.7000,"φ^6/5",8.100,"Edo Shogun",Tertiary,""
117,"Tsuruga",36.0667,136.0667,"φ^6/4.5",7.560,"Echizen",Tertiary,""
118,"Oki Islands",36.1667,133.2667,"φ^6/4.6",7.680,"Shinto sacred",Tertiary,""
119,"Monte Alto",14.0833,-90.9167,"φ^1/8",0.678,"Pacific Guatemala",Tertiary,"Ol mec heads"
120,"La Democracia",14.1667,-90.9667,"φ^1/8.1",0.702,"Pacific Guatemala",Tertiary,""
121,"Kaminaljuyu",14.6833,-90.5500,"φ^1/10",0.912,"Guatemala City",Tertiary,"Preclassic"
122,"Iximche",14.7833,-91.1333,"φ^1/11",0.978,"Highland Guatemala",Tertiary,"Kaqchikel Maya"
123,"Takalik Abaj",14.6333,-91.8500,"φ^1/9.5",0.864,"Pacific slope",Tertiary,"Olmec/Maya"
124,"La Blanca",17.6667,-91.4167,"φ^2/10",0.678,"Petexbatun",Tertiary,""
125,"Tel Dan",33.2500,35.6500,"φ^5/2.5",5.220,"Israel North",Tertiary,"House of David"
126,"Tel Gezer",31.8833,34.9167,"φ^10/2.8",7.020,"Israel West",Tertiary,"Solomonic gates"
127,"Beersheva",31.2500,34.7833,"φ^10/3",7.200,"Negev",Tertiary,"Iron Age gates"
128,"Rapa Nui Akahanga",-27.1500,-109.3000,"φ^-3/1.1",0.132,"Easter Island Extension",Primary,"Moai platform"
129,"Easter Island Vinapu",-27.1333,-109.3167,"φ^-3/1.05",0.126,"Easter Island Extension",Primary,"Inca-style walls"
130,"Tiwanaku Gate Sun",-16.5547,-68.6739,"φ^-5",0.057,"Andean Path",Primary,"Gateway of the Sun"
131,"Chavin de Huantar",-9.5944,-77.1778,"φ^-2/2",0.084,"Andean North",Primary,"Oldest Andean center"
132,"Kuélap Fortress",-6.4511,-77.7944,"φ^-2/1.5",0.069,"Cloud Forest",Primary,"Chachapoya"
133,"Cantamarca",-12.8333,-75.9167,"φ^-4/1.2",0.138,"Nazca Extension",Primary,"Paracas"
134,"Chankillo Towers",-9.5833,-78.1333,"φ^-2/1.8",0.102,"Casma Valley",Primary,"13-tower observatory"
135,"Caral Supé",-10.8933,-77.5233,"φ^-3",0.120,"Norte Chico",Primary,"Oldest American city"
136,"Sechin Alto",-9.1333,-78.5833,"φ^-2/2.5",0.150,"Casma",Primary,"Largest Moche platform"
137,"El Paraíso",-11.5833,-77.4833,"φ^-3/1.2",0.138,"Chilca Valley",Primary,"4000 BCE"
138,"Banda de Palmitas",-12.4167,-76.6667,"φ^-4/1.1",0.126,"Asia-Pacific",Primary,"Petroglyphs"
139,"Pokotia Stone",-19.0333,-65.7500,"φ^-6",0.090,"Tiwanaku Extension",Primary,"Sumerian script?"
140,"Sumac Wayta",-16.2667,-67.9667,"φ^-5/1.2",0.072,"Tiwanaku North",Primary,"Geoglyph"
141,"Llama Peru",-14.9833,-75.3167,"φ^-5/1.5",0.096,"Nazca South",Primary,"Geoglyph"
142,"Atacama Giant",-20.1333,-69.0667,"φ^-6/1.1",0.078,"Atacama Desert",Primary,"386 figures"
143,"Pachacamac",-12.2333,-76.8167,"φ^-4",0.108,"Lima Valley",Primary,"Pilgrim center"
144,"Túcume",-6.7833,-80.7333,"φ^-2",0.120,"Lambayeque",Primary,"26 pyramids"
145,"Ventarrón",-6.1833,-80.7833,"φ^-2/1.3",0.132,"Lambayeque North",Primary,"4000 BCE temple"
146,"Pacopampa",-6.2833,-78.8667,"φ^-2/1.4",0.138,"Cajamarca",Primary,"Moche"
147,"Kuntur Wasi",-7.4667,-78.7000,"φ^-2/2",0.168,"Cajamarca",Primary,"Gold work"
148,"La Pampa La Bola",-7.0333,-78.3833,"φ^-2/1.8",0.162,"Jequetepeque",Primary,"Cupisnique"
149,"Huaca Rajada",-6.8167,-79.7000,"φ^-2/2.2",0.180,"Sipán",Primary,"Lord of Sipán tomb"
150,"Pañamarca",-7.4833,-78.3833,"φ^-2/3",0.204,"Jequetepeque",Primary,"Moche murals"
151,"Cahuachi",-14.8667,-75.4333,"φ^-5",0.090,"Nazca Valley",Primary,"Pilgrim center"
152,"Ventilla",-15.3833,-75.0167,"φ^-5/1.1",0.096,"Nazca North",Primary,"Wari outpost"
153,"Laramate",-14.6167,-75.3000,"φ^-5/1.2",0.102,"Nazca South",Primary,"Petroglyphs"
154,"Torres de los Caballos",-15.2667,-74.9167,"φ^-5/1.3",0.108,"Nazca",Primary,"Geoglyphs"
155,"Huaypar",-14.7167,-74.9833,"φ^-5/1.4",0.114,"Nazca",Primary,"Geoglyphs"
156,"San Isidro",-15.4167,-74.9667,"φ^-5/1.5",0.120,"Nazca",Primary,"Geoglyphs"
157,"El Carmo",-15.3167,-75.0167,"φ^-5/1.6",0.126,"Nazca",Primary,"Geoglyphs"
158,"Las Peñitas",-15.3667,-74.9667,"φ^-5/1.7",0.132,"Nazca",Primary,"Geoglyphs"
159,"El Ingles",-15.2833,-75.0333,"φ^-5/1.8",0.138,"Nazca",Primary,"Geoglyphs"
160,"Huaca del Oro",-15.3333,-75.0000,"φ^-5/1.9",0.144,"Nazca",Primary,"Geoglyphs"
161,"Puerto Mayo",-15.4000,-74.9500,"φ^-5/2",0.150,"Nazca",Primary,"Geoglyphs"
162,"La Venta",-18.1333,-94.0500,"φ^-6/1.2",0.144,"Olmec Heartland",Secondary,"Colossal heads"
163,"Tres Zapotes",18.4833,-95.2000,"φ^2/7",0.678,"Olmec",Secondary,"Giant heads"
164,"San Lorenzo",18.1333,-94.0000,"φ^2/6",0.612,"Olmec",Secondary,"Earthworks"
165,"La Joya",18.1167,-94.2667,"φ^2/6.5",0.642,"Olmec",Secondary,""
166,"Cantón Corralito",19.2667,-95.1833,"φ^2/8",0.732,"Olmec outlier",Secondary,""
167,"Tak’alik Abaj",14.6333,-91.8500,"φ^1/9.5",0.864,"Olmec/Maya",Secondary,"Potbelly sculpture"
168,"Ojo de Agua",14.0833,-89.6167,"φ^1/8",0.678,"Pacific Guatemala",Secondary,""
169,"Chalchuapa",13.7833,-89.6667,"φ^1/7.5",0.642,"El Salvador",Secondary,""
170,"Quelepa",13.5667,-88.3167,"φ^1/7",0.612,"El Salvador",Secondary,""
171,"Los Naranjos",15.4167,-87.9833,"φ^1/12",0.978,"Honduras",Secondary,""
172,"Playa de los Muertos",15.9500,-87.7833,"φ^1/15",1.134,"Ulua River",Secondary,""
173,"Cuyamel Caves",15.6667,-87.9500,"φ^1/13",1.044,"Honduras",Secondary,""
174,"El Cajon",14.7833,-87.9500,"φ^1/11",0.978,"Honduras",Secondary,""
175,"Cueva de las Letras",15.0333,-88.0333,"φ^1/9",0.864,"Copán region",Secondary,""
176,"Anakena Beach Moai",-27.1667,-109.3167,"φ^-3",0.120,"Easter Island Extension",Primary,"Rapa Nui landing"
177,"Ahu Tahai",-27.1233,-109.3833,"φ^-3/1.1",0.132,"Easter Island Extension",Primary,"Restored platform"
178,"Ahu Akivi",-27.1667,-109.3833,"φ^-3/1.2",0.138,"Easter Island Extension",Primary,"7 Moai facing sea"
179,"Ahu Te Pito Kura",-27.1333,-109.3333,"φ^-3/1.3",0.144,"Easter Island Extension",Primary,"Largest Moai base"
180,"Pukao Quarry",-27.1333,-109.3167,"φ^-3/1.4",0.150,"Easter Island Extension",Primary,"Hats production"
181,"Rano Raraku Quarry",-27.1333,-109.2833,"φ^-3/1.5",0.156,"Easter Island Extension",Primary,"Main Moai quarry"
182,"Ovahe Bay",-27.1333,-109.3833,"φ^-3/1.6",0.162,"Easter Island Extension",Primary,"Cave paintings"
183,"Ahu Tongariki",-27.1333,-109.2667,"φ^-3/1.7",0.168,"Easter Island Extension",Primary,"15 Moai restored"
184,"Poike Ditch",-27.1833,-109.3167,"φ^-3/1.8",0.174,"Easter Island Extension",Primary,"Defensive earthwork"
185,"Orongo Ceremonial",-27.1667,-109.3833,"φ^-3/1.9",0.180,"Easter Island Extension",Primary,"Birdman cult"
186,"Vinapu Walls",-27.1333,-109.3167,"φ^-3/2",0.186,"Easter Island Extension",Primary,"Inca-style masonry"
187,"Aku Akivi Road",-27.1667,-109.4000,"φ^-3/2.1",0.192,"Easter Island Extension",Primary,"Moai transport"
188,"Hanga Kio'e",-27.1000,-109.3167,"φ^-3/2.2",0.198,"Easter Island Extension",Primary,"Boat ramp"
189,"Hanga Te'e",-27.1000,-109.3333,"φ^-3/2.3",0.204,"Easter Island Extension",Primary,""
190,"Puna Pau Quarry",-27.1000,-109.3167,"φ^-3/2.4",0.210,"Easter Island Extension",Primary,"Pukao source"
191,"Göbekli Tepe Enclosure A",37.2231,38.9225,"φ^6",0.444,"Jerusalem Path",Primary,"T-pillars"
192,"Göbekli Tepe Enclosure B",37.2231,38.9225,"φ^6/1.01",0.450,"Jerusalem Path",Primary,"Vultures carving"
193,"Göbekli Tepe Enclosure C",37.2231,38.9225,"φ^6/1.02",0.456,"Jerusalem Path",Primary,"Fox pillar"
194,"Göbekli Tepe Enclosure D",37.2231,38.9225,"φ^6/1.03",0.462,"Jerusalem Path",Primary,"Boar relief"
195,"Göbekli Tepe Enclosure E",37.2231,38.9225,"φ^6/1.04",0.468,"Jerusalem Path",Primary,"Scorpion"
196,"Karahan Tepe",37.3833,38.9167,"φ^6/1.1",0.618,"Anatolian Band",Secondary,"Sister site 9600 BCE"
197,"Sefer Tepe",37.3167,38.9500,"φ^6/1.15",0.678,"Anatolian Band",Secondary,"PPN Neolithic"
198,"Yumuktepe",36.9833,34.0167,"φ^5/2",2.880,"Cilician Gate",Secondary,"10k BCE mound"
199,"Nevalı Çori",37.5000,38.8833,"φ^6/1.2",0.738,"Euphrates Band",Secondary,"Submerged"
200,"Sayburç",37.5167,38.8833,"φ^6/1.25",0.798,"Euphrates Band",Secondary,"Human statue"
201,"Aşıklı Höyük",38.0333,34.3833,"φ^6/1.5",1.620,"Cappadocia",Secondary,"9000 BCE"
202,"Çatalhöyük East",37.6670,32.4978,"φ^6/1.05",0.462,"Anatolia Central",Secondary,"Neolithic city"
203,"Çatalhöyük West",37.6670,32.6278,"φ^6/1.06",0.474,"Anatolia Central",Secondary,"Later phase"
204,"Hacılar",37.9667,30.9167,"φ^6/2",2.880,"Southwest Anatolia",Secondary,"Pottery Neolithic"
205,"Boncuklu Tarla",37.0667,40.2333,"φ^5/3",5.400,"Şanlıurfa",Secondary,"PPN"
206,"Körtik Tepe",37.8167,40.7833,"φ^6/3",5.040,"Batman River",Secondary,"9000 BCE"
207,"Sakçagözü",37.0333,36.6167,"φ^5/4",6.120,"Amuq Valley",Secondary,"Hittite"
208,"Tayinat",36.0833,36.4333,"φ^5/5",6.840,"Neo-Hittite",Secondary,"Iron Age"
209,"Zincirli",37.0833,36.5833,"φ^6/4",6.480,"Neo-Hittite",Secondary,"Sam'al kingdom"
210,"Karkamış",37.0167,38.0167,"φ^5/6",6.960,"Euphrates",Secondary,"Hittite"
211,"Tell Tayinat East Mound",36.0833,36.4333,"φ^5/5.1",6.912,"Neo-Hittite",Secondary,"Palace complex"
212,"Al Mina",35.8167,35.9667,"φ^5/7",7.560,"Levantine coast",Secondary,"Greek trading post"
213,"Tell Afis",36.0333,36.4167,"φ^5/5.5",7.380,"Iron Age Syria",Secondary,""
214,"Homs Gap Tell",34.7333,36.7167,"φ^5/8",8.640,"Syrian interior",Secondary,""
215,"Ebla Tell Mardikh",35.8333,36.8333,"φ^5/1.7",2.430,"Syria North",Secondary,"Archives 2300 BCE"
216,"Umm el-Marra",36.5667,37.2167,"φ^6/2.2",4.140,"Ebla region",Secondary,"Amorite"
217,"Tell Brak",36.5333,41.0500,"φ^6/3.5",5.760,"Northern Mesopotamia",Secondary,"Uruk colony"
218,"Hamman et-Turkman",36.7833,39.0500,"φ^6/4.5",7.560,"Balikh River",Secondary,""
219,"Tell Hammam az-Zahrat",36.3167,39.0167,"φ^6/3.8",6.480,"Khabur",Secondary,""
220,"Tell Brak East",36.5333,41.0833,"φ^6/3.6",6.120,"Northern Mesopotamia",Secondary,""
221,"Tell Leilan",36.5500,40.4000,"φ^6/4",6.480,"Khabur headwaters",Secondary,"Akkadian"
222,"Tell Mozan (Urkesh)",36.7833,42.7333,"φ^6/5.5",8.910,"Hurrian capital",Secondary,""
223,"Tell Barri",36.6167,41.3833,"φ^6/4.8",7.920,"Khabur",Secondary,""
224,"Tell Fekheriye",36.8167,41.0333,"φ^6/5",8.100,"Khabur",Secondary,"Hadad statue"
225,"Batash",36.2667,41.0500,"φ^6/3.2",5.400,"Khabur",Secondary,""
226,"Tell Bderi",36.2667,41.0167,"φ^6/3.3",5.580,"Khabur",Secondary,""
227,"Tell Hamad Az-Her",36.2333,41.0333,"φ^6/3.4",5.760,"Khabur",Secondary,""
228,"Chagar Bazar",36.4833,40.9833,"φ^6/4.2",6.840,"Khabur",Secondary,""
229,"Tell Brak West",36.5333,41.0167,"φ^6/3.7",6.300,"Northern Mesopotamia",Secondary,""
230,"Tell Rimah",36.1167,43.3167,"φ^5/10",10.800,"Euphrates",Secondary,""
231,"Nuzi",35.9667,44.4833,"φ^5/11",11.880,"Kirkuk region",Secondary,""
232,"Yorghan Tepe",35.9500,44.3833,"φ^5/11.5",12.420,"Kirkuk",Secondary,""
233,"Tell al-Rimah",36.1167,43.3167,"φ^5/10.5",11.340,"Western Iraq",Secondary,""
234,"Tell Taya",36.3833,42.4833,"φ^6/5.2",8.460,"Sinjar",Secondary,""
235,"Sargonic Tuttul",35.9333,40.8167,"φ^5/12",12.960,"Balikh",Secondary,""
236,"Jericho Tell es-Sultan",31.8667,35.4333,"φ^10/1.2",1.197,"Jericho Cluster",Primary,"11,000 BCE walls"
237,"Jericho Tower",31.8667,35.4333,"φ^10/1.21",1.209,"Jericho Cluster",Primary,"9m stone tower"
238,"Tell es-Sultan North",31.8833,35.4500,"φ^10/1.25",1.458,"Jericho Cluster",Primary,"PPNA"
239,"Tell es-Sultan South",31.8500,35.4167,"φ^10/1.15",1.080,"Jericho Cluster",Primary,""
240,"Ain es-Sultan Spring",31.8667,35.4167,"φ^10/1.1",0.978,"Jericho Oasis",Primary,"Water source"
241,"Gilgal I",31.8667,35.3833,"φ^10/1.3",1.620,"Jericho Extension",Secondary,"20+ megaliths"
242,"Gilgal II",31.9000,35.4167,"φ^10/1.35",1.728,"Jericho Extension",Secondary,"Circle+line"
243,"Gilgal III",31.8833,35.4000,"φ^10/1.4",1.836,"Jericho Extension",Secondary,""
244,"Gilgal IV-VII",31.8833,35.3833,"φ^10/1.45",1.944,"Jericho Extension",Secondary,"7 sites"
245,"Netiv Hagdud",31.8167,35.3167,"φ^10/1.5",2.052,"Pre-Pottery",Secondary,"PPNA"
246,"Gesher",32.5000,35.6000,"φ^10/2",2.880,"Jordan Valley",Secondary,"Natufian"
247,"Salat Shimoni",33.1333,35.4667,"φ^5/2.5",5.220,"Galilee",Secondary,"Natufian caves"
248,"Nahal Oren",32.6833,34.9667,"φ^10/2.5",3.780,"Mount Carmel",Secondary,""
249,"El-Wad",32.6833,34.9667,"φ^10/2.6",3.960,"Mount Carmel",Secondary,"Natufian terrace"
250,"Kfar HaHoresh",32.7167,35.4500,"φ^10/3",7.200,"Lower Galilee",Secondary,"PPNA burials"
251,"Mugharet el-Wad",32.6833,34.9667,"φ^10/2.7",4.140,"Mount Carmel",Secondary,""
252,"Shuqba Cave",31.8833,35.0833,"φ^10/1.8",2.790,"Wadi an-Natuf",Secondary,"Type-site"
253,"Wadi Hammeh 27",32.2167,35.6167,"φ^10/2.8",4.320,"Jordan Valley",Secondary,"Natufian"
254,"Hayonim Cave",32.9833,35.4167,"φ^10/4",6.480,"Upper Galilee",Secondary,""
255,"Nahal Ein Gev II",32.6667,35.6167,"φ^10/3.5",6.300,"Sea Galilee",Secondary,""
256,"Hatula",31.7833,34.9500,"φ^10/2.2",3.420,"Judean foothills",Secondary,"PPNA"
257,"Jilat 1",31.6167,35.3167,"φ^10/2.1",3.240,"Negev",Secondary,""
258,"Sabra I",31.1833,34.4333,"φ^9/3",5.940,"Negev",Secondary,""
259,"Ramat Harif",30.9833,34.3833,"φ^10/3.2",5.760,"Negev Highlands",Secondary,""
260,"Abu Madi I",31.0167,34.4500,"φ^10/3.3",6.060,"Negev",Secondary,""
261,"Harif Shelter 4",30.9667,34.4167,"φ^10/3.4",6.360,"Negev",Secondary,""
262,"Indus Valley Harappa",30.6167,72.8667,"φ^10/2.8",4.320,"Indus Grid",Primary,"Mature Harappan"
263,"Indus Valley Mohenjo-Daro",27.3167,68.1333,"φ^-3/2",2.790,"Indus Grid",Primary,"Great Bath"
264,"Indus Valley Dholavira",23.8833,70.2167,"φ^-2",1.920,"Rann of Kutch",Primary,"Water management"
265,"Indus Valley Ganweriwala",29.5500,69.7000,"φ^10/3.5",6.300,"Cholistan",Primary,"Lost city"
266,"Indus Valley Rakhigarhi",29.2833,76.4000,"φ^10/3.8",7.020,"Haryana",Primary,"Largest Harappan"
267,"Indus Valley Kalibangan",29.5167,74.1167,"φ^10/4",6.480,"Ghaggar-Hakra",Primary,"Fire altars"
268,"Indus Valley Lothal",22.5167,71.8167,"φ^-2/1.5",1.440,"Gujarat coast",Primary,"Dockyard"
269,"Indus Valley Surkotada",23.2667,71.5333,"φ^-2/2",1.920,"Kutch",Primary,"Horse bones"
270,"Indus Valley Balakot",25.3333,66.6167,"φ^-1/4",0.912,"Las Bela coast",Primary,""
271,"Indus Valley Allahdino",24.9333,68.6667,"φ^-2/3",2.040,"Sindh",Primary,""
272,"Indus Valley Chanhudaro",26.0500,68.1333,"φ^-1/5",1.134,"Sindh",Primary,"Bead factory"
273,"Indus Valley Kot Diji",27.3333,68.9000,"φ^-3/1.5",1.440,"Sindh hills",Primary,"Pre-Harappan"
274,"Indus Valley Rehman Dheri",32.3167,71.0667,"φ^10/5",10.800,"Gomal",Primary,""
275,"Indus Valley Amri",26.1333,68.1667,"φ^-1/6",1.458,"Sindh",Primary,"Amri culture"
276,"Poverty Point Mound A",32.6367,-91.4067,"φ^10/5",10.800,"Mississippi",Primary,"Bird effigy"
277,"Poverty Point Mound B",32.6333,-91.4100,"φ^10/5.1",11.340,"Mississippi",Primary,""
278,"Poverty Point Mound C",32.6300,-91.4133,"φ^10/5.2",11.880,"Mississippi",Primary,""
279,"Poverty Point Concentric Rings",32.6350,-91.4083,"φ^10/5.3",12.420,"Mississippi",Primary,"6 semi-circles"
280,"Poverty Point Bird Mound",32.6383,-91.4042,"φ^10/5.4",13.140,"Mississippi",Primary,""
281,"Poverty Point Mound E",32.6317,-91.4117,"φ^10/5.5",13.680,"Mississippi",Primary,""
282,"Jaketown Site",33.3167,-91.1833,"φ^10/6",12.960,"Yazoo Basin",Secondary,"Poverty Point culture"
283,"Watson Brake",31.9500,-91.5667,"φ^10/6.5",13.680,"Louisiana",Secondary,"Oldest mound complex"
284,"Frenchman's Bend",32.6167,-91.5167,"φ^10/6.8",14.580,"Ouachita",Secondary,""
285,"Maiden",32.7167,-91.3167,"φ^10/7",15.120,"Tensas Basin",Secondary,""
286,"Piacellville",32.7833,-91.5000,"φ^10/7.5",16.200,"Tensas Basin",Secondary,""
287,"Mound A Bayou",32.8500,-91.2333,"φ^10/8",17.280,"Tensas Basin",Secondary,""
288,"Transylvania",32.8167,-91.3167,"φ^10/8.5",18.360,"Tensas Basin",Secondary,""
289,"Sargent Mound",32.7667,-91.2667,"φ^10/9",19.440,"Tensas Basin",Secondary,""
290,"Laffite's Landing",32.7333,-91.2833,"φ^10/9.5",20.520,"Tensas Basin",Secondary,""
291,"Poverty Point Objects Workshop",32.6167,-91.4167,"φ^10/10",21.600,"Mississippi",Tertiary,"Lapita-style"
292,"Moundville Platform A",33.1333,-87.6167,"φ^10/11",23.760,"Black Warrior",Tertiary,"Largest Mississippian"
293,"Moundville Platform B",33.1317,-87.6183,"φ^10/11.5",24.840,"Black Warrior",Tertiary,""
294,"Cahokia Monks Mound",38.6500,-90.0667,"φ^7/2",5.760,"Ohio Valley",Primary,"100ft high"
295,"Cahokia Mound 48",38.6483,-90.0683,"φ^7/2.1",6.120,"Ohio Valley",Primary,"Woodhenge"
296,"Cahokia East St Louis",38.6167,-90.1333,"φ^7/2.2",6.480,"Mississippi",Primary,"Borrow pit"
297,"Cahokia Lunsford-Pulcher",38.3667,-90.3167,"φ^7/3",7.560,"St Louis suburbs",Secondary,""
298,"East St Louis Mound",38.6167,-90.1500,"φ^7/2.5",7.920,"Mississippi",Secondary,""
299,"St Louis Mounds",38.6333,-90.2000,"φ^7/2.8",8.640,"Mississippi",Secondary,"Demolished"
300,"Range Site",38.6167,-90.1833,"φ^7/3.5",10.800,"St Clair",Secondary,""
301,"Hopewell Mound City",39.3667,-83.0167,"φ^7/1.5",2.070,"Ohio Valley",Primary,"23 mounds enclosed"
302,"Hopewell Mound City Great Circle",39.3667,-83.0167,"φ^7/1.51",2.088,"Ohio Valley",Primary,"110-acre circle"
303,"Hopewell Mound City Octagon",39.3667,-83.0167,"φ^7/1.52",2.106,"Ohio Valley",Primary,"Geometrically precise"
304,"Hopewell Seip Mounds",39.4167,-83.0167,"φ^7/1.6",2.250,"Scioto Valley",Primary,"Great ceremony"
305,"Hopewell Tremper Mound",39.2333,-82.8333,"φ^7/1.7",2.394,"Scioto South",Primary,"Copper artifacts"
306,"Hopewell Conus Mound",39.3167,-83.0667,"φ^7/1.8",2.538,"Paint Creek",Primary,"Conical"
307,"Hopewell Edwin Harness",39.3833,-82.9333,"φ^7/1.9",2.682,"Scioto",Primary,"Bird effigy"
308,"Hopewell Liberty Earthworks",39.3167,-83.1333,"φ^7/2",2.880,"Little Miami",Primary,"Square+circle"
309,"Hopewell Milford Works",39.1667,-84.0000,"φ^7/2.1",3.024,"Little Miami",Primary,"Wall+moon"
310,"Hopewell Anderson Works",39.1333,-84.0167,"φ^7/2.2",3.168,"Little Miami",Primary,"Largest enclosure"
311,"Hopewell Stubbs Park",39.1167,-84.0333,"φ^7/2.3",3.312,"Little Miami",Primary,"Huge henge"
312,"Hopewell Shriver Circle",39.2667,-83.1333,"φ^7/2.4",3.456,"Paint Creek",Primary,"Perfect circle"
313,"Hopewell Greene County Group",39.6833,-83.8833,"φ^7/2.5",3.600,"Mad River",Primary,"Cluster"
314,"Hopewell Dunlap Works",39.6167,-83.8333,"φ^7/2.6",3.744,"Mad River",Primary,""
315,"Hopewell Lancaster Group",39.7167,-82.6167,"φ^7/2.7",3.888,"Hocking Valley",Primary,""
316,"Adena Criel Mound",38.5000,-81.9667,"φ^7/3",7.560,"Kanawha Valley",Primary,"30ft conical"
317,"Adena C mound",38.5000,-81.9667,"φ^7/3.1",7.704,"Kanawha Valley",Primary,"Group complex"
318,"Adena Grave Creek Mound",39.8167,-80.9667,"φ^7/4",10.800,"Ohio River",Primary,"69ft conical"
319,"Adena Mound Builders Memorial",39.3167,-84.2667,"φ^7/5",13.500,"Great Miami",Primary,"Memorial park"
320,"Adena Stubbs Mound",39.1167,-84.0333,"φ^7/6",16.200,"Little Miami",Primary,""
321,"Adena Tremper Mound",39.2333,-82.8333,"φ^7/7",18.900,"Scioto",Primary,"Pipe workshop"
322,"Adena Morrison Mound",39.2333,-82.8333,"φ^7/7.5",20.250,"Scioto",Primary,""
323,"Adena Conus Mound",39.3167,-83.0667,"φ^7/8",21.600,"Paint Creek",Primary,""
324,"Adena Edwin Harness Mound",39.3833,-82.9333,"φ^7/9",24.300,"Scioto",Primary,"Bird effigy"
325,"Adena Shriver Circle",39.2667,-83.1333,"φ^7/10",27.000,"Paint Creek",Primary,"Perfect circle"
326,"Dorset Brochter",64.2333,-83.1667,"φ^12",36.000,"Canadian Arctic",Primary,"Longhouse"
327,"Dorset Igloolik",69.3667,-81.8167,"φ^13",46.800,"Baffin Island",Primary,"Thule transition"
328,"Dorset Ferguson Lake",64.5167,-84.0167,"φ^12/1.5",54.000,"Nunavut",Primary,"Largest site"
329,"Dorset Cape Dorset",64.2167,-76.5333,"φ^12/1.2",43.200,"Baffin",Primary,"Art center"
330,"Dorset Washout Creek",64.2333,-81.5000,"φ^12/1.3",46.800,"Somerset Island",Primary,""
331,"Dorset Phillip Smith Cape",62.7167,-78.6167,"φ^11/2",38.880,"Little Cornwallis",Primary,""
332,"Dorset Alarnerak",65.2333,-84.1167,"φ^12/2",72.000,"Prince of Wales",Primary,""
333,"Dorset Polar Bear House",64.7167,-83.6167,"φ^12/2.5",90.000,"Bathurst Island",Primary,""
334,"Dorset Tuniit Houses",62.9667,-66.0333,"φ^11/3",41.400,"Ungava Bay",Primary,""
335,"Clovis Blackwater Draw",34.3167,-103.3167,"φ^5/2",5.400,"Texas Panhandle",Primary,"Type site"
336,"Clovis Lehner Mammoth Kill",38.7167,-104.9500,"φ^7/2.8",8.640,"Denver area",Primary,"Bison kill"
337,"Clovis Dent",32.6167,-106.6167,"φ^10/4",10.800,"New Mexico",Primary,""
338,"Clovis Murray Springs",31.8167,-110.1833,"φ^9/3",8.640,"San Pedro Valley",Primary,""
339,"Clovis Gault Site",30.8167,-97.4333,"φ^10/5",13.500,"Central Texas",Primary,"Mother site"
340,"Clovis Pibest",35.2167,-101.8167,"φ^5/3",8.100,"Texas Panhandle",Primary,""
341,"Clovis Domebo",34.6333,-98.9667,"φ^5/4",10.800,"Oklahoma",Primary,""
342,"Clovis Simon Shelter",35.2333,-106.0167,"φ^5/5",13.500,"New Mexico",Primary,""
343,"Clovis Lubbock Lake",33.6167,-101.9167,"φ^10/5.5",16.200,"Texas Panhandle",Primary,""
344,"Clovis Lake Theo",35.4500,-102.3167,"φ^5/6",16.200,"Texas Panhandle",Primary,""
345,"Clovis Colby",40.9833,-103.3167,"φ^8/2",15.120,"Northeast Colorado",Primary,""
346,"Easter Island Petroglyphs Makahiki",27.1333,-109.3167,"φ^-3/3",3.780,"Easter Island Extension",Tertiary,"400+ figures"
347,"Easter Island Rongorongo Texts",27.1333,-109.3167,"φ^-3/3.1",3.924,"Easter Island Extension",Tertiary,"Glyph tablets"
348,"Easter Island Birdman Petroglyphs",27.1667,-109.3833,"φ^-3/3.2",4.068,"Easter Island Extension",Tertiary,"Orongo 1000+ figures"
349,"Easter Island Topknot Quarry",27.1333,-109.3167,"φ^-3/3.3",4.212,"Easter Island Extension",Tertiary,"Pukao production"
350,"Easter Island Moai Transport Roads",27.1500,-109.3333,"φ^-3/3.4",4.356,"Easter Island Extension",Tertiary,"30km network"
351,"Easter Island Ahu Platforms",27.1333,-109.3167,"φ^-3/3.5",4.500,"Easter Island Extension",Tertiary,"300+ platforms"
352,"Easter Island Manu Jar Support",27.1333,-109.3167,"φ^-3/3.6",4.644,"Easter Island Extension",Tertiary,"Revealed 2020"
353,"Easter Island Cave Dwellings Ana Kai",27.1667,-109.3833,"φ^-3/3.7",4.788,"Easter Island Extension",Tertiary,"100+ caves"
354,"Easter Island Ana Te Pahu",27.1833,-109.3167,"φ^-3/3.8",4.932,"Easter Island Extension",Tertiary,"Largest lava tube"
355,"Easter Island Ana Kai Tangata",27.1333,-109.3833,"φ^-3/3.9",5.076,"Easter Island Extension",Tertiary,"Paintings"
356,"Easter Island Ana Rapu",27.1167,-109.3333,"φ^-3/4",5.220,"Easter Island Extension",Tertiary,""
357,"Easter Island Manutara Tagata",27.1667,-109.4000,"φ^-3/4.1",5.364,"Easter Island Extension",Tertiary,"Birdman"
358,"Easter Island Hare Kupenga",27.1833,-109.3833,"φ^-3/4.2",5.508,"Easter Island Extension",Tertiary,"Fish trap"
359,"Easter Island Ahu Te Peu",27.1333,-109.2667,"φ^-3/4.3",5.652,"Easter Island Extension",Tertiary,""
360,"Easter Island Poike Peninsula Sites",27.1833,-109.3167,"φ^-3/4.4",5.796,"Easter Island Extension",Tertiary,"Obsidian"
361,"Nazca Monte Alto",14.0833,-90.9167,"φ^1/8",0.678,"Pacific Guatemala",Primary,"Colossal heads"
362,"Nazca La Democracia",14.1667,-90.9667,"φ^1/8.1",0.702,"Pacific Guatemala",Primary,"Colossal heads"
363,"Nazca Takalik Abaj",14.6333,-91.8500,"φ^1/9.5",0.864,"Pacific slope",Primary,"Olmec/Maya"
364,"Nazca Kaminaljuyu",14.6833,-90.5500,"φ^1/10",0.912,"Guatemala City",Primary,"Preclassic"
365,"Nazca Iximche",14.7833,-91.1333,"φ^1/11",0.978,"Highland Guatemala",Primary,"Kaqchikel Maya"
366,"Nazca La Blanca",17.6667,-91.4167,"φ^2/10",0.678,"Petexbatun",Primary,"Early mound"
367,"Nazca El Mirador Danta",17.7550,-90.2750,"φ^2/9",0.213,"Guatemala Peten",Primary,"Largest pyramid"
368,"Nazca Nakbe",17.7167,-90.1333,"φ^2/9",0.246,"Guatemala Peten",Primary,""
369,"Nazca El Tintal",17.7833,-90.3167,"φ^2/9.5",0.279,"Guatemala Peten",Primary,""
370,"Nazca Triangulo Akbal",17.7667,-90.2667,"φ^2/9.2",0.240,"Guatemala Peten",Primary,""
371,"Nazca La Muralla",17.7333,-90.2833,"φ^2/9.3",0.252,"Guatemala Peten",Primary,""
372,"Nazca El Pedregal",17.7500,-90.3000,"φ^2/9.4",0.264,"Guatemala Peten",Primary,""
373,"Nazca Wakna'an",17.7667,-90.2833,"φ^2/9.6",0.288,"Guatemala Peten",Primary,""
374,"Nazca La Palotada",17.7833,-90.2667,"φ^2/9.7",0.300,"Guatemala Peten",Primary,""
375,"Nazca Xulnaab",17.7500,-90.2667,"φ^2/9.8",0.312,"Guatemala Peten",Primary,""
376,"Etowah Mound A",34.0167,-85.0333,"φ^5/2",5.400,"SE Ceremonial",Primary,"Largest Mississippian SE"
377,"Etowah Mound B",34.0167,-85.0333,"φ^5/2.1",5.688,"SE Ceremonial",Primary,"Borrowed from Cahokia"
378,"Etowah Mound C",34.0167,-85.0333,"φ^5/2.2",5.976,"SE Ceremonial",Primary,"Platform mound"
379,"Etowah Mound E",34.0167,-85.0333,"φ^5/2.3",6.264,"SE Ceremonial",Primary,""
380,"Etowah Mound F",34.0167,-85.0333,"φ^5/2.4",6.552,"SE Ceremonial",Primary,""
381,"Spiro Mound Group A",35.3667,-94.6167,"φ^6/2",5.760,"Arkansas River",Primary,"Great Mortuary"
382,"Spiro Mound B",35.3667,-94.6167,"φ^6/2.1",6.120,"Arkansas River",Primary,"Conical"
383,"Spiro Mound C",35.3667,-94.6167,"φ^6/2.2",6.480,"Arkansas River",Primary,""
384,"Spiro Brown Mound",35.3667,-94.6167,"φ^6/2.3",6.840,"Arkansas River",Primary,"Largest Spiro"
385,"Spiro Craig Mound",35.3667,-94.6167,"φ^6/2.4",7.200,"Arkansas River",Primary,"Shell engravings"
386,"Spiro Kinkaid Mound",35.3667,-94.6167,"φ^6/2.5",7.560,"Arkansas River",Primary,""
387,"Kincaid Mound A",37.1333,-88.8833,"φ^7/3",7.560,"Ohio River",Primary,"Largest in region"
388,"Kincaid Mound B",37.1333,-88.8833,"φ^7/3.1",7.944,"Ohio River",Primary,""
389,"Kincaid Mound C",37.1333,-88.8833,"φ^7/3.2",8.328,"Ohio River",Primary,""
390,"Kincaid Mound D",37.1333,-88.8833,"φ^7/3.3",8.712,"Ohio River",Primary,""
391,"Serpent Mound",39.0333,-83.4333,"φ^7/1.2",1.728,"Ohio Valley",Primary,"1348ft effigy"
392,"Serpent Mound Conical Mound",39.0333,-83.4333,"φ^7/1.21",1.746,"Ohio Valley",Primary,"Adjacent mound"
393,"Serpent Mound Oval Enclosure",39.0333,-83.4333,"φ^7/1.22",1.764,"Ohio Valley",Primary,"Wall enclosure"
394,"Tremper Mound",39.2333,-82.8333,"φ^7/1.8",2.592,"Scioto",Primary,"Hopewell pipes"
395,"Shriver Circle",39.2667,-83.1333,"φ^7/2.8",8.064,"Paint Creek",Primary,"Perfect geometry"
396,"Seip Earthworks",39.4167,-83.0167,"φ^7/3.5",10.080,"Scioto Valley",Primary,"Great circle"
397,"Chaco Canyon Pueblo Bonito",36.0333,-107.9667,"φ^6/2.5",7.560,"San Juan Basin",Primary,"800 rooms"
398,"Chaco Canyon Chetro Ketl",36.0333,-107.9667,"φ^6/2.6",7.920,"San Juan Basin",Primary,"400 rooms"
399,"Chaco Canyon Pueblo del Arroyo",36.0333,-107.9667,"φ^6/2.7",8.280,"San Juan Basin",Primary,""
400,"Chaco Canyon Casa Rinconada",36.0333,-107.9667,"φ^6/2.8",8.640,"San Juan Basin",Primary,"Great kiva"
401,"Chaco Canyon Tsin Kletsin",36.0333,-107.9667,"φ^6/2.9",9.000,"San Juan Basin",Primary,"Overlook"
402,"Chaco Canyon Una Vida",36.0333,-107.9667,"φ^6/3",9.360,"San Juan Basin",Primary,"Earliest great house"
403,"Chaco Canyon Kin Kletso",36.0333,-107.9667,"φ^6/3.1",9.720,"San Juan Basin",Primary,"Masonry change"
404,"Chaco Canyon New Alto",36.0333,-107.9667,"φ^6/3.2",10.080,"San Juan Basin",Primary,""
405,"Chaco Canyon Penasco Blanco",36.0333,-107.9667,"φ^6/3.3",10.440,"San Juan Basin",Primary,"Supernova pictograph"
406,"Aztec Ruins West Ruin",36.8333,-108.0167,"φ^6/4",12.960,"San Juan Basin",Primary,"Chaco outlier"
407,"Aztec Ruins Hubbard Tri-wall",36.8333,-108.0167,"φ^6/4.1",13.320,"San Juan Basin",Primary,"3-story kiva"
408,"Mesa Verde Cliff Palace",37.2333,-108.4833,"φ^7/2",5.760,"Mesa Verde",Primary,"150 rooms"
409,"Mesa Verde Balcony House",37.2333,-108.4833,"φ^7/2.1",6.120,"Mesa Verde",Primary,""
410,"Mesa Verde Spruce Tree House",37.2333,-108.4833,"φ^7/2.2",6.480,"Mesa Verde",Primary,"Best preserved"
411,"Hovenweep Square Tower",37.3833,-109.0833,"φ^7/2.5",7.200,"SE Utah",Primary,"Tower village"
412,"Hovenweep Hovenweep House",37.3833,-109.0833,"φ^7/2.6",7.560,"SE Utah",Primary,""
413,"Hovenweep Rim Rock House",37.3833,-109.0833,"φ^7/2.7",7.920,"SE Utah",Primary,""
414,"Hovenweep Twin Towers",37.3833,-109.0833,"φ^7/2.8",8.280,"SE Utah",Primary,""
415,"Canyons of the Ancients Cahone",37.4333,-108.9833,"φ^7/3",9.360,"SW Colorado",Primary,""
416,"Canyons of the Ancients Escalation",37.4333,-108.9833,"φ^7/3.1",9.720,"SW Colorado",Primary,""
417,"Canyons of the Ancients Target House",37.4333,-108.9833,"φ^7/3.2",10.080,"SW Colorado",Primary,""
418,"Canyons of the Ancients Painted Kiva",37.4333,-108.9833,"φ^7/3.3",10.440,"SW Colorado",Primary,""
419,"Canyons of the Ancients Badger House",37.4333,-108.9833,"φ^7/3.4",10.800,"SW Colorado",Primary,"Pueblo I-III"
420,"Canyons of the Ancients Sand Canyon",37.3833,-108.9333,"φ^7/3.5",11.160,"SW Colorado",Primary,"Pueblo III"
421,"Yellow Jacket Pueblo",37.6167,-108.6833,"φ^7/4",12.960,"SW Colorado",Primary,"Largest pueblo"
422,"Crow Canyon Sand Canyon Pueblo",37.3833,-108.9333,"φ^7/4.5",14.400,"Montezuma County",Primary,"Abandoned AD 1280"
423,"Albert Porter Pueblo",37.4167,-108.4167,"φ^7/5",16.200,"Montezuma County",Primary,"90 rooms"
424,"Baldwin-Ives Ruin",37.3167,-108.4833,"φ^7/5.5",19.800,"Montezuma County",Primary,"Cliff dwelling"
425,"Soda Canyon",37.3167,-108.4833,"φ^7/6",21.600,"Montezuma County",Primary,""
426,"Stephens Ruin",37.3167,-108.4833,"φ^7/6.5",24.300,"Montezuma County",Primary,""
427,"Sentinel Rock Ruin",37.3167,-108.4833,"φ^7/7",27.000,"Montezuma County",Primary,""
428,"Painted Hand Pueblo",37.3167,-108.4833,"φ^7/7.5",29.700,"Montezuma County",Primary,"Pictographs"
429,"Turkey Pen Ruin",37.3167,-108.4833,"φ^7/8",30.240,"Montezuma County",Primary,""
430,"East Ruin",37.3167,-108.4833,"φ^7/8.5",32.400,"Montezuma County",Primary,""
431,"Upper Park Point",37.3167,-108.4833,"φ^7/9",34.560,"Montezuma County",Primary,""
432,"Lower Park Point",37.3167,-108.4833,"φ^7/9.5",36.720,"Montezuma County",Primary,""
433,"Farncomb Hill",37.3167,-108.4833,"φ^7/10",38.880,"Montezuma County",Primary,""
434,"Morfield Canyon Group",37.3167,-108.4833,"φ^7/10.5",41.040,"Montezuma County",Primary,""
435,"Prater Ridge Pueblo",37.3167,-108.4833,"φ^7/11",43.200,"Montezuma County",Primary,""
436,"Kneeling Figure Ruin",37.3167,-108.4833,"φ^7/11.5",45.360,"Montezuma County",Primary,""
437,"Upper Two Story House Ruin",37.3167,-108.4833,"φ^7/12",47.520,"Montezuma County",Primary,""
438,"Lower Two Story House Ruin",37.3167,-108.4833,"φ^7/12.5",49.680,"Montezuma County",Primary,""
439,"Painted Cave",37.3167,-108.4833,"φ^7/13",51.840,"Montezuma County",Primary,"Pictographs"
440,"Cub Canyon Ruin",37.3167,-108.4833,"φ^7/13.5",53.460,"Montezuma County",Primary,""
441,"Nordenskiold 16",37.3167,-108.4833,"φ^7/14",57.600,"Montezuma County",Primary,""
442,"Nordenskiold 17",37.3167,-108.4833,"φ^7/14.5",59.400,"Montezuma County",Primary,""
443,"Nordenskiold 18",37.3167,-108.4833,"φ^7/15",61.200,"Montezuma County",Primary,""
444,"Nordenskiold 19",37.3167,-108.4833,"φ^7/15.5",63.000,"Montezuma County",Primary,""
445,"Nordenskiold 20",37.3167,-108.4833,"φ^7/16",64.800,"Montezuma County",Primary,""
446,"Nordenskiold 21",37.3167,-108.4833,"φ^7/16.5",66.600,"Montezuma County",Primary,""
447,"Nordenskiold 22",37.3167,-108.4833,"φ^7/17",68.400,"Montezuma County",Primary,""
448,"Nordenskiold 23",37.3167,-108.4833,"φ^7/17.5",70.200,"Montezuma County",Primary,""
449,"Nordenskiold 24",37.3167,-108.4833,"φ^7/18",72.000,"Montezuma County",Primary,""
450,"Nordenskiold 25",37.3167,-108.4833,"φ^7/18.5",73.800,"Montezuma County",Primary,""
451,"Cahokia Rattle Snake Mound",38.6500,-90.0667,"φ^7/2",5.760,"Ohio Valley",Primary,"Serpent effigy"
452,"Cahokia Mound 51",38.6483,-90.0683,"φ^7/2.1",6.120,"Ohio Valley",Primary,"Marker mound"
453,"Cahokia Mound 72",38.6467,-90.0700,"φ^7/2.2",6.480,"Ohio Valley",Primary,"Priest's mound"
454,"Cahokia Mound 66",38.6450,-90.0717,"φ^7/2.3",6.840,"Ohio Valley",Primary,""
455,"Cahokia Woodhenge",38.6483,-90.0683,"φ^7/2.4",7.200,"Ohio Valley",Primary,"Solar observatory"
456,"East St Louis Mound Group",38.6167,-90.1333,"φ^7/3",9.360,"Mississippi",Primary,"10+ mounds"
457,"Range Site Mound 1",38.6167,-90.1833,"φ^7/3.5",11.160,"St Clair",Primary,""
458,"Range Site Mound 2",38.6167,-90.1850,"φ^7/3.6",11.520,"St Clair",Primary,""
459,"Range Site Mound 3",38.6167,-90.1870,"φ^7/3.7",11.880,"St Clair",Primary,""
460,"St Louis Mound Group A",38.6333,-90.2000,"φ^7/4",12.960,"Mississippi",Primary,"Demolished 1860s"
461,"St Louis Mound Group B",38.6333,-90.2020,"φ^7/4.1",13.320,"Mississippi",Primary,"Demolished"
462,"Sugar Loaf Mound",38.7000,-90.2667,"φ^7/4.5",14.400,"St Charles",Primary,"Conical"
463,"Maria Creek Mounds",38.3167,-90.0333,"φ^7/5",16.200,"Meramec River",Primary,""
464,"Florence Mound",38.2667,-90.0167,"φ^7/5.5",19.800,"Meramec River",Primary,""
465,"Greenwood Mound",38.2333,-89.9833,"φ^7/6",21.600,"Kaskaskia River",Primary,""
466,"Anker Mound",38.2000,-89.9500,"φ^7/6.5",24.300,"Kaskaskia River",Primary,""
467,"Emerald Mound",38.1667,-89.9167,"φ^7/7",27.000,"Kaskaskia River",Primary,""
468,"Saddle Mound",38.1333,-89.8833,"φ^7/7.5",29.700,"Kaskaskia River",Primary,"Effigy"
469,"Piasa Bird Mound",38.8667,-90.2167,"φ^7/8",30.240,"Bluff complex",Primary,""
470,"Eberletown Mound",38.8333,-90.1833,"φ^7/8.5",32.400,"Bluff complex",Primary,""
471,"Estelle Mound",38.8000,-90.1500,"φ^7/9",34.560,"Bluff complex",Primary,""
472,"Adams Mound",38.7667,-90.1167,"φ^7/9.5",36.720,"Bluff complex",Primary,""
473,"Northland Mound",38.7333,-90.0833,"φ^7/10",38.880,"Bluff complex",Primary,""
474,"Snyder Mound",38.7000,-90.0500,"φ^7/10.5",41.040,"Bluff complex",Primary,""
475,"Carlyle Mound",38.6167,-89.3667,"φ^7/11",43.200,"Kaskaskia",Primary,""
476,"Poverty Point Motley Mounds",32.7167,-91.3167,"φ^10/8",21.600,"Tensas Basin",Primary,"Cluster"
477,"Poverty Point Big Mound Key",32.7833,-91.5000,"φ^10/9",24.300,"Tensas Basin",Primary,""
478,"Poverty Point Lysander Mounds",32.8500,-91.2333,"φ^10/10",27.000,"Tensas Basin",Primary,""
479,"Poverty Point Pecan Mound",32.8167,-91.3167,"φ^10/11",29.700,"Tensas Basin",Primary,""
480,"Poverty Point Preston Mound",32.7667,-91.2667,"φ^10/12",32.400,"Tensas Basin",Primary,""
481,"Poverty Point Round Lake",32.7333,-91.2833,"φ^10/13",35.100,"Tensas Basin",Primary,""
482,"Poverty Point Big Tensas",32.7000,-91.3000,"φ^10/14",37.800,"Tensas Basin",Primary,""
483,"Poverty Point Lower Jackson",32.6667,-91.3167,"φ^10/15",40.500,"Tensas Basin",Primary,""
484,"Poverty Point Pecan Grove",32.6333,-91.3333,"φ^10/16",43.200,"Tensas Basin",Primary,""
485,"Poverty Point Big Woods",32.6000,-91.3500,"φ^10/17",45.900,"Tensas Basin",Primary,""
486,"Poverty Point Middle Lake",32.5667,-91.3667,"φ^10/18",48.600,"Tensas Basin",Primary,""
487,"Poverty Point Big Bayou",32.5333,-91.3833,"φ^10/19",51.300,"Tensas Basin",Primary,""
488,"Poverty Point Lower Lake",32.5000,-91.4000,"φ^10/20",54.000,"Tensas Basin",Primary,""
489,"Dorset Thule House 1",69.3667,-81.8167,"φ^13/1.5",70.200,"Igloolik",Primary,"Transition site"
490,"Dorset Thule House 2",69.3667,-81.8167,"φ^13/1.6",75.600,"Igloolik",Primary,"Whaler"
491,"Dorset Silumiut",64.2333,-83.1667,"φ^12/2",72.000,"Brochter Bay",Primary,"Longhouse cluster"
492,"Dorset Iglulik Island",69.3833,-81.8333,"φ^13/2",93.600,"Baffin Island",Primary,""
493,"Dorset Arctic Bay",73.0333,-85.1667,"φ^14/1.5",79.200,"Baffin",Primary,""
494,"Dorset Pond Inlet",72.7000,-77.9667,"φ^14/2",100.800,"Baffin",Primary,""
495,"Dorset Clyde River",70.4667,-68.5167,"φ^13/3",112.500,"Baffin",Primary,""
496,"Dorset Pangnirtung",66.1333,-65.7167,"φ^12/3",108.000,"Baffin",Primary,""
497,"Dorset Qikertaq",67.5333,-64.0333,"φ^13/4",150.000,"Cumberland Sound",Primary,""
498,"Dorset Kekertet",67.5167,-64.0167,"φ^13/4.1",154.800,"Cumberland Sound",Primary,""
499,"Dorset Cape Tanfield",63.8167,-68.7167,"φ^11/4",57.600,"Baffin",Primary,""
500,"Dorset Digges Sound",62.5167,-78.1167,"φ^11/5",72.000,"Digges Islands",Primary,"Largest Dorset"
501,"Newark Earthworks Great Circle",40.0333,-82.4167,"φ^8/1.5",25.200,"Ohio Valley",Primary,"1.9km diameter"
502,"Newark Earthworks Octagon",40.0333,-82.4167,"φ^8/1.51",25.452,"Ohio Valley",Primary,"50 acres precise"
503,"Newark Earthworks Square",40.0333,-82.4167,"φ^8/1.52",25.704,"Ohio Valley",Primary,"Luna Lunisolar"
504,"Newark Observatory Mound",40.0333,-82.4167,"φ^8/1.53",25.956,"Ohio Valley",Primary,"Alignment marker"
505,"Newark Great Hopewell Road",40.0333,-82.4167,"φ^8/1.54",26.208,"Ohio Valley",Primary,"8-mile straight"
506,"Chillicothe Mound 8",39.3333,-82.9833,"φ^7/4",12.960,"Scioto Valley",Primary,"Adena/Hopewell"
507,"Chillicothe Works",39.3333,-82.9833,"φ^7/4.1",13.680,"Scioto Valley",Primary,"Enclosure complex"
508,"High Bank Works",39.4167,-83.0167,"φ^7/4.2",14.400,"Scioto Valley",Primary,"Octagon+circle"
509,"Greene County Group",39.6833,-83.8833,"φ^7/4.5",16.200,"Mad River",Primary,"Cluster mounds"
510,"Dunlap Works",39.6167,-83.8333,"φ^7/4.8",18.360,"Mad River",Primary,"Geometric enclosure"
511,"Story Mound",39.3167,-84.2667,"φ^7/5.5",21.600,"Great Miami",Primary,"Adena conical"
512,"Miamisburg Mound",39.6333,-84.1667,"φ^7/6",23.400,"Great Miami",Primary,"100ft conical"
513,"Fort Ancient",39.4333,-83.9167,"φ^7/6.5",27.000,"Little Miami",Primary,"215 acres walled"
514,"Fort Ancient parallel walls",39.4333,-83.9167,"φ^7/6.6",27.720,"Little Miami",Primary,"60ft apart"
515,"Anderson Earthworks",39.1333,-84.0167,"φ^7/7",30.600,"Little Miami",Primary,"Largest enclosure"
516,"Stubbs Park",39.1167,-84.0333,"φ^7/7.5",34.200,"Little Miami",Primary,"Huge henge 3200ft"
517,"Shriver Circle",39.2667,-83.1333,"φ^7/8",38.880,"Paint Creek",Primary,"1040ft diameter"
518,"Seip Earthworks",39.4167,-83.0167,"φ^7/8.5",43.200,"Scioto",Primary,"Great circle enclosure"
519,"Liberty Earthworks",39.3167,-83.1333,"φ^7/9",47.520,"Little Miami",Primary,"Square+circle"
520,"Milford Works",39.1667,-84.0000,"φ^7/9.5",51.840,"Little Miami",Primary,"Wall+moon enclosure"
521,"Cincinnati Fort Hill",39.1000,-83.4833,"φ^7/10",57.600,"Ohio Brush Creek",Primary,"3-mile wall"
522,"Piketon Earthworks",39.0667,-82.9833,"φ^7/10.5",61.920,"Scioto",Primary,"D-shaped henge"
523,"Zainesville Twin Mounds",39.9667,-82.0167,"φ^8/2",33.600,"Muskingum",Primary,"Identical twins"
524,"Tariton Mound",39.5833,-83.1833,"φ^7/11",64.800,"Pickaway",Primary,"Adena conical"
525,"Bower Mound",39.3167,-83.7833,"φ^7/12",72.000,"Paint Creek",Primary,"Adena platform"
526,"Salisbury Mound",39.3167,-83.7833,"φ^7/12.5",75.600,"Paint Creek",Primary,"Adjacent platform"
527,"Wade Mound",39.3167,-83.7833,"φ^7/13",79.200,"Paint Creek",Primary,"Adena conical"
528,"Champaign County Mounds",40.1167,-83.7833,"φ^8/2.5",42.000,"Mad River",Primary,"Cluster"
529,"Licking County Mounds",40.0667,-82.4167,"φ^8/3",50.400,"Licking River",Primary,""
530,"Chillicothe Mound 1",39.3333,-82.9833,"φ^7/14",86.400,"Scioto Valley",Primary,"Largest conical"
531,"Spiro Satellite Mound 1",35.3667,-94.5833,"φ^6/3",9.360,"Arkansas River",Secondary,"Outlier"
532,"Spiro Satellite Mound 2",35.3667,-94.5500,"φ^6/3.1",9.720,"Arkansas River",Secondary,""
533,"Spiro Satellite Mound 3",35.3667,-94.6167,"φ^6/3.2",10.080,"Arkansas River",Secondary,""
534,"Spiro Satellite Mound 4",35.3667,-94.6333,"φ^6/3.3",10.440,"Arkansas River",Secondary,""
535,"Spiro Satellite Mound 5",35.3667,-94.6000,"φ^6/3.4",10.800,"Arkansas River",Secondary,""
536,"Spiro Satellite Mound 6",35.3667,-94.5667,"φ^6/3.5",11.160,"Arkansas River",Secondary,""
537,"Spiro Satellite Mound 7",35.3667,-94.5833,"φ^6/3.6",11.520,"Arkansas River",Secondary,""
538,"Spiro Satellite Mound 8",35.3667,-94.6167,"φ^6/3.7",11.880,"Arkansas River",Secondary,""
539,"Spiro Satellite Mound 9",35.3667,-94.6333,"φ^6/3.8",12.240,"Arkansas River",Secondary,""
540,"Spiro Satellite Mound 10",35.3667,-94.6500,"φ^6/3.9",12.600,"Arkansas River",Secondary,""
541,"Angel Mounds 1",37.5333,-87.4333,"φ^7/4.5",16.200,"Ohio River",Primary,"Platform mound"
542,"Angel Mounds 2",37.5333,-87.4333,"φ^7/4.6",16.920,"Ohio River",Primary,""
543,"Angel Mounds 3",37.5333,-87.4333,"φ^7/4.7",17.640,"Ohio River",Primary,""
544,"Angel Mounds 4",37.5333,-87.4333,"φ^7/4.8",18.360,"Ohio River",Primary,""
545,"Angel Mounds 5",37.5333,-87.4333,"φ^7/4.9",19.080,"Ohio River",Primary,""
546,"Angel Mounds 6",37.5333,-87.4333,"φ^7/5",19.800,"Ohio River",Primary,""
547,"Angel Mounds 7",37.5333,-87.4333,"φ^7/5.1",20.520,"Ohio River",Primary,""
548,"Angel Mounds 8",37.5333,-87.4333,"φ^7/5.2",21.240,"Ohio River",Primary,""
549,"Angel Mounds 9",37.5333,-87.4333,"φ^7/5.3",21.960,"Ohio River",Primary,""
550,"Angel Mounds 10",37.5333,-87.4333,"φ^7/5.4",22.680,"Ohio River",Primary,""
551,"Chacoan Outlier Casamero",35.4667,-107.8833,"φ^6/4.5",14.400,"San Juan Basin",Secondary,"Great house"
552,"Chacoan Outlier Andrews Ruin",35.1167,-107.9667,"φ^6/4.8",18.360,"San Juan Basin",Secondary,""
553,"Chacoan Outlier Cox Ranch Pueblo",35.2667,-107.8833,"φ^6/5",19.800,"San Juan Basin",Secondary,""
554,"Chacoan Outlier Salmon Ruin",36.6833,-108.4667,"φ^6/6",25.920,"San Juan Basin",Secondary,"Great house"
555,"Chacoan Outlier Aztec West",36.8333,-108.0167,"φ^6/7",30.600,"San Juan Basin",Secondary,"Tri-wall kiva"
556,"Chacoan Outlier Lobo Ranch",35.5333,-107.9500,"φ^6/7.5",34.200,"San Juan Basin",Secondary,""
557,"Chacoan Outlier Red Mesa Valley",35.5167,-109.0167,"φ^6/8",38.880,"San Juan Basin",Secondary,""
558,"Chacoan Outlier Tall Pines",35.5667,-109.0500,"φ^6/8.5",43.200,"San Juan Basin",Secondary,""
559,"Chacoan Outlier Wild Horse Mesa",35.6167,-109.0833,"φ^6/9",47.520,"San Juan Basin",Secondary,""
560,"Chacoan Outlier Pierre's Site",35.6667,-109.1167,"φ^6/9.5",51.840,"San Juan Basin",Secondary,""
561,"Chacoan Outlier Lafarge Canyon",35.7167,-109.1500,"φ^6/10",57.600,"San Juan Basin",Secondary,""
562,"Chacoan Outlier Waterflow",36.7667,-108.0167,"φ^6/11",64.800,"San Juan Basin",Secondary,""
563,"Chacoan Outlier Greenlee Ruin",36.8167,-108.0500,"φ^6/11.5",69.120,"San Juan Basin",Secondary,""
564,"Chacoan Outlier Gaa Naaba",36.8667,-108.0833,"φ^6/12",72.000,"San Juan Basin",Secondary,""
565,"Chacoan Outlier Klag Mounds",36.9167,-108.1167,"φ^6/12.5",75.600,"San Juan Basin",Secondary,""
566,"Chacoan Outlier Padilla Ruin",36.9667,-108.1500,"φ^6/13",79.200,"San Juan Basin",Secondary,""
567,"Chacoan Outlier Tamolitch",37.0167,-108.1833,"φ^6/13.5",82.800,"San Juan Basin",Secondary,""
568,"Chacoan Outlier Wells Mesa",37.0667,-108.2167,"φ^6/14",86.400,"San Juan Basin",Secondary,""
569,"Chacoan Outlier Morris 41",37.1167,-108.2500,"φ^6/14.5",89.280,"San Juan Basin",Secondary,""
570,"Chacoan Outlier Heshota Ayathla",37.1667,-108.2833,"φ^6/15",93.600,"San Juan Basin",Secondary,""
571,"Moundville Mound A",33.1333,-87.6167,"φ^5/3",10.800,"Black Warrior",Primary,"Largest platform SE"
572,"Moundville Mound B",33.1333,-87.6167,"φ^5/3.1",11.340,"Black Warrior",Primary,"Priest residence"
573,"Moundville Mound C",33.1333,-87.6167,"φ^5/3.2",11.880,"Black Warrior",Primary,"Rectangular platform"
574,"Moundville Mound D",33.1333,-87.6167,"φ^5/3.3",12.420,"Black Warrior",Primary,"Chief's mound"
575,"Moundville Mound E",33.1333,-87.6167,"φ^5/3.4",12.960,"Black Warrior",Primary,""
576,"Moundville Mound F",33.1333,-87.6167,"φ^5/3.5",13.500,"Black Warrior",Primary,"Rectangular"
577,"Moundville Mound G",33.1333,-87.6167,"φ^5/3.6",14.040,"Black Warrior",Primary,""
578,"Moundville Mound H",33.1333,-87.6167,"φ^5/3.7",14.580,"Black Warrior",Primary,""
579,"Moundville Mound I",33.1333,-87.6167,"φ^5/3.8",15.120,"Black Warrior",Primary,""
580,"Moundville Mound J",33.1333,-87.6167,"φ^5/3.9",15.660,"Black Warrior",Primary,""
581,"Moundville Mound K",33.1333,-87.6167,"φ^5/4",16.200,"Black Warrior",Primary,""
582,"Moundville Mound L",33.1333,-87.6167,"φ^5/4.1",16.740,"Black Warrior",Primary,""
583,"Moundville Mound M",33.1333,-87.6167,"φ^5/4.2",17.280,"Black Warrior",Primary,""
584,"Moundville Mound N",33.1333,-87.6167,"φ^5/4.3",17.820,"Black Warrior",Primary,""
585,"Moundville Mound O",33.1333,-87.6167,"φ^5/4.4",18.360,"Black Warrior",Primary,""
586,"Moundville Mound P",33.1333,-87.6167,"φ^5/4.5",18.900,"Black Warrior",Primary,""
587,"Moundville Mound Q",33.1333,-87.6167,"φ^5/4.6",19.440,"Black Warrior",Primary,""
588,"Ocmulgee Mound A",32.5333,-83.7167,"φ^10/8",30.240,"Ocmulgee River",Primary,"Earth Lodge"
589,"Ocmulgee Mound B",32.5333,-83.7167,"φ^10/8.1",30.960,"Ocmulgee River",Primary,"Great Temple"
590,"Ocmulgee Mound C",32.5333,-83.7167,"φ^10/8.2",31.680,"Ocmulgee River",Primary,"Mississippian"
591,"Ocmulgee Mound D",32.5333,-83.7167,"φ^10/8.3",32.400,"Ocmulgee River",Primary,""
592,"Ocmulgee Mound E",32.5333,-83.7167,"φ^10/8.4",33.120,"Ocmulgee River",Primary,""
593,"Ocmulgee Mound F",32.5333,-83.7167,"φ^10/8.5",33.840,"Ocmulgee River",Primary,""
594,"Ocmulgee Mound G",32.5333,-83.7167,"φ^10/8.6",34.560,"Ocmulgee River",Primary,""
595,"Ocmulgee Mound H",32.5333,-83.7167,"φ^10/8.7",35.280,"Ocmulgee River",Primary,""
596,"Ocmulgee Mound I",32.5333,-83.7167,"φ^10/8.8",36.000,"Ocmulgee River",Primary,""
597,"Ocmulgee Mound J",32.5333,-83.7167,"φ^10/8.9",36.720,"Ocmulgee River",Primary,""
598,"Ocmulgee Mound K",32.5333,-83.7167,"φ^10/9",38.880,"Ocmulgee River",Primary,""
599,"Ocmulgee Mound L",32.5333,-83.7167,"φ^10/9.1",39.600,"Ocmulgee River",Primary,""
600,"Ocmulgee Mound M",32.5333,-83.7167,"φ^10/9.2",40.320,"Ocmulgee River",Primary,""
601,"Aztalan Platform Mound A",43.0667,-88.4333,"φ^8/3",60.480,"Rock River",Primary,"NE Mississippian"
602,"Aztalan Platform Mound B",43.0667,-88.4333,"φ^8/3.1",62.640,"Rock River",Primary,"Priest mound"
603,"Aztalan Platform Mound C",43.0667,-88.4333,"φ^8/3.2",64.800,"Rock River",Primary,"Chief's mound"
604,"Aztalan Conical Mound 1",43.0667,-88.4333,"φ^8/3.3",66.960,"Rock River",Primary,""
605,"Aztalan Conical Mound 2",43.0667,-88.4333,"φ^8/3.4",69.120,"Rock River",Primary,""
606,"Aztalan Conical Mound 3",43.0667,-88.4333,"φ^8/3.5",71.280,"Rock River",Primary,""
607,"Aztalan Conical Mound 4",43.0667,-88.4333,"φ^8/3.6",73.440,"Rock River",Primary,""
608,"Aztalan Conical Mound 5",43.0667,-88.4333,"φ^8/3.7",75.600,"Rock River",Primary,""
609,"Aztalan Log Tomb",43.0667,-88.4333,"φ^8/3.8",77.760,"Rock River",Primary,"Unique mortuary"
610,"Aztalan Stockade Posts",43.0667,-88.4333,"φ^8/3.9",79.920,"Rock River",Primary,"Defensive palisade"
611,"Aztalan House Floor 1",43.0667,-88.4333,"φ^8/4",82.080,"Rock River",Primary,"Burned structure"
612,"Aztalan House Floor 2",43.0667,-88.4333,"φ^8/4.1",84.240,"Rock River",Primary,""
613,"Aztalan House Floor 3",43.0667,-88.4333,"φ^8/4.2",86.400,"Rock River",Primary,""
614,"Aztalan Burial Mound A",43.0667,-88.4333,"φ^8/4.3",88.560,"Rock River",Primary,""
615,"Aztalan Burial Mound B",43.0667,-88.4333,"φ^8/4.4",90.720,"Rock River",Primary,""
616,"Aztalan Burial Mound C",43.0667,-88.4333,"φ^8/4.5",92.880,"Rock River",Primary,""
617,"Aztalan Burial Mound D",43.0667,-88.4333,"φ^8/4.6",95.040,"Rock River",Primary,""
618,"Aztalan Burial Mound E",43.0667,-88.4333,"φ^8/4.7",97.200,"Rock River",Primary,""
619,"Aztalan Burial Mound F",43.0667,-88.4333,"φ^8/4.8",99.360,"Rock River",Primary,""
620,"Aztalan Burial Mound G",43.0667,-88.4333,"φ^8/4.9",101.520,"Rock River",Primary,""
621,"Effigy Mounds Lizard Mound",43.0667,-91.2333,"φ^8/5",103.680,"Mississippi River",Primary,"Oneota culture"
622,"Effigy Mounds Great Bear Mound",43.0667,-91.2333,"φ^8/5.1",105.840,"Mississippi River",Primary,"Intact bear"
623,"Effigy Mounds Twin Views Group",43.0667,-91.2333,"φ^8/5.2",108.000,"Mississippi River",Primary,"200+ effigies"
624,"Effigy Mounds Marching Bear Group",43.0667,-91.2333,"φ^8/5.3",110.160,"Mississippi River",Primary,"5 connected bears"
625,"Effigy Mounds Hanging Rock Cliff",43.0667,-91.2333,"φ^8/5.4",112.320,"Mississippi River",Primary,"Cliff shelters"
626,"Effigy Mounds Sny Magill Unit",43.0667,-91.2333,"φ^8/5.5",114.480,"Mississippi River",Primary,"96 mounds"
627,"Effigy Mounds 3rd Group",43.0667,-91.2333,"φ^8/5.6",116.640,"Mississippi River",Primary,"Bird+linear"
628,"Effigy Mounds Fire Point Group",43.0667,-91.2333,"φ^8/5.7",118.800,"Mississippi River",Primary,"Conical cluster"
629,"Effigy Mounds Navarre Cluster",43.0667,-91.2333,"φ^8/5.8",120.960,"Mississippi River",Primary,""
630,"Effigy Mounds Potosi Point",43.0667,-91.2333,"φ^8/5.9",123.120,"Mississippi River",Primary,""
631,"Angel Mounds Satellite 1",37.5000,-87.4000,"φ^7/5",19.800,"Ohio River",Primary,"Outlier mound"
632,"Angel Mounds Satellite 2",37.4833,-87.3833,"φ^7/5.1",20.520,"Ohio River",Primary,"Platform"
633,"Angel Mounds Satellite 3",37.4667,-87.3667,"φ^7/5.2",21.240,"Ohio River",Primary,"Conical"
634,"Angel Mounds Satellite 4",37.4500,-87.3500,"φ^7/5.3",21.960,"Ohio River",Primary,""
635,"Angel Mounds Satellite 5",37.4333,-87.3333,"φ^7/5.4",22.680,"Ohio River",Primary,""
636,"Angel Mounds Satellite 6",37.4167,-87.3167,"φ^7/5.5",23.400,"Ohio River",Primary,""
637,"Angel Mounds Satellite 7",37.4000,-87.3000,"φ^7/5.6",24.120,"Ohio River",Primary,""
638,"Angel Mounds Satellite 8",37.3833,-87.2833,"φ^7/5.7",24.840,"Ohio River",Primary,""
639,"Angel Mounds Satellite 9",37.3667,-87.2667,"φ^7/5.8",25.560,"Ohio River",Primary,""
640,"Angel Mounds Satellite 10",37.3500,-87.2500,"φ^7/5.9",26.280,"Ohio River",Primary,""
641,"Oneota Orchard Mound Group",43.3167,-91.2000,"φ^8/5",103.680,"Upper Mississippi",Primary,"100+ mounds"
642,"Oneota Gundersen Site",43.2833,-91.1667,"φ^8/5.1",105.840,"Upper Mississippi",Primary,"Village+mounds"
643,"Oneota Fisher Mounds",43.2500,-91.1333,"φ^8/5.2",108.000,"Upper Mississippi",Primary,"Conical cluster"
444,"Oneota Dilts Site",43.2167,-91.1000,"φ^8/5.3",110.160,"Upper Mississippi",Primary,"Palisaded village"
645,"Oneota Lawler Site",43.1833,-91.0667,"φ^8/5.4",112.320,"Upper Mississippi",Primary,""
646,"Oneota Sandy Slough",43.1500,-91.0333,"φ^8/5.5",114.480,"Upper Mississippi",Primary,""
647,"Oneota Pammel Park Mounds",43.1167,-91.0000,"φ^8/5.6",116.640,"Upper Mississippi",Primary,""
648,"Oneota White Cloud",43.0833,-90.9667,"φ^8/5.7",118.800,"Upper Mississippi",Primary,""
649,"Oneota Petersen Site",43.0500,-90.9333,"φ^8/5.8",120.960,"Upper Mississippi",Primary,""
650,"Oneota Hopi Village",43.0167,-90.9000,"φ^8/5.9",123.120,"Upper Mississippi",Primary,""
651,"Great Lakes Aztalan 2",43.0667,-88.4333,"φ^8/6",124.200,"Rock River",Primary,"Additional features"
652,"Great Lakes Lake Koshkonong",42.8833,-88.9833,"φ^8/6.5",134.640,"Rock River",Primary,"Birkett Beach"
653,"Great Lakes Koshkonong Creek",42.8500,-88.9500,"φ^8/7",151.200,"Rock River",Primary,"Mound cluster"
654,"Great Lakes Hebron Mounds",42.8167,-88.9167,"φ^8/7.5",161.280,"Rock River",Primary,""
655,"Great Lakes Geneva Lake Mounds",42.7833,-88.8833,"φ^8/8",172.800,"Rock River",Primary,"Bird effigies"
656,"Great Lakes Whitewater Lake",42.7500,-88.8500,"φ^8/8.5",184.320,"Rock River",Primary,"Conical mounds"
657,"Great Lakes Rice Lake",42.7167,-88.8167,"φ^8/9",198.000,"Rock River",Primary,""
658,"Great Lakes Okauchee Lake",43.1167,-88.4167,"φ^8/10",216.000,"Fox River",Primary,"Lake mounds"
659,"Great Lakes Ozaukee County",43.1833,-88.0000,"φ^8/11",237.600,"Milwaukee River",Primary,"Effigy mounds"
660,"Great Lakes Sheboygan County",43.7500,-87.7167,"φ^8/12",259.200,"Lake Michigan",Primary,"Linear mounds"
661,"Great Lakes Door County",44.8333,-87.3833,"φ^9/2",288.000,"Green Bay",Primary,"Peninsula mounds"
662,"Great Lakes Washington County",43.3167,-88.1833,"φ^8/13",280.800,"Milwaukee River",Primary,"Panther effigy"
663,"Great Lakes Jefferson County",43.0000,-88.6667,"φ^8/14",302.400,"Rock River",Primary,"Lake Ripley complex"
664,"Great Lakes Rock County",42.8167,-89.0000,"φ^8/15",324.000,"Sugar River",Primary,"Indian Mounds park"
665,"Great Lakes Green Lake County",43.8333,-89.0000,"φ^9/2.5",360.000,"Fox River",Primary,"Largest effigy"
666,"Mississippi Emerald Grove",42.7833,-89.7667,"φ^8/16",345.600,"Sugar River",Primary,"Intact mounds"
667,"Mississippi Pecatonica River",42.7500,-89.7333,"φ^8/17",367.200,"Sugar River",Primary,"Conical cluster"
668,"Mississippi Platteville Mounds",42.7167,-89.7000,"φ^8/18",388.800,"Fever River",Primary,""
669,"Mississippi Dickey Mounds",42.6833,-89.6667,"φ^8/19",410.400,"Fever River",Primary,""
670,"Mississippi Sinsinawa Mounds",42.6500,-89.6333,"φ^8/20",432.000,"Fever River",Primary,""
671,"Mississippi Koshkonong Point",42.8833,-89.1500,"φ^8/21",453.600,"Rock River",Primary,"Intact effigy"
672,"Mississippi Beloit College Mounds",42.8167,-89.0333,"φ^8/22",475.200,"Rock River",Primary,"Campus mounds"
673,"Mississippi Indian Ford Mounds",42.7500,-89.0167,"φ^8/23",496.800,"Rock River",Primary,"Crossing site"
674,"Mississippi Four Mounds",42.6833,-88.9833,"φ^8/24",518.400,"Rock River",Primary,"Named cluster"
675,"Mississippi High Cliff",44.1167,-88.3167,"φ^9/3",432.000,"Lake Winnebago",Primary,"State park mounds"
676,"Mississippi Lizard Mound County Park",43.4167,-89.6167,"φ^8/25",540.000,"Fox River",Primary,"Lizard+panther"
677,"Mississippi Man Mound",43.4333,-89.5833,"φ^8/26",561.600,"Fox River",Primary,"Only human effigy"
678,"Mississippi Panther Intaglio",43.4500,-89.5500,"φ^8/27",583.200,"Fox River",Primary,"Intaglio figure"
679,"Mississippi AZTLAN",43.0667,-88.4333,"φ^8/28",604.800,"Rock River",Primary,"Reconstruction"
680,"Mississippi Manz Mounds",43.0333,-88.4000,"φ^8/29",626.400,"Rock River",Primary,"Conical cluster"
681,"Plains Village Crow Creek",43.9667,-99.6333,"φ^8/10",216.000,"Missouri River",Primary,"500 scalped"
682,"Plains Village Crow Creek Village",43.9667,-99.6333,"φ^8/10.1",218.160,"Missouri River",Primary,"Fortified"
683,"Plains Village Ak chin",43.9333,-99.6000,"φ^8/10.2",220.320,"Missouri River",Primary,"Satellite"
684,"Plains Village Swan Creek",43.9000,-99.5667,"φ^8/10.3",222.480,"Missouri River",Primary,"Palisaded"
685,"Plains Village Langdon",43.8667,-99.5333,"φ^8/10.4",224.640,"Missouri River",Primary,"Mandan-like"
686,"Plains Village Pretty Stone",43.8333,-99.5000,"φ^8/10.5",226.800,"Missouri River",Primary,""
687,"Plains Village Schild",43.8000,-99.4667,"φ^8/10.6",228.960,"Missouri River",Primary,"Extended family"
688,"Plains Village Elson",43.7667,-99.4333,"φ^8/10.7",231.120,"Missouri River",Primary,"Bastion"
689,"Plains Village Kurtz",43.7333,-99.4000,"φ^8/10.8",233.280,"Missouri River",Primary,""
690,"Plains Village Phillips",43.7000,-99.3667,"φ^8/10.9",235.440,"Missouri River",Primary,""
691,"Fort Ancient Marietta Works",39.4167,-81.4667,"φ^7/15",108.000,"Ohio River",Primary,"1788 survey"
692,"Fort Ancient Shaler Hill",39.4167,-81.4667,"φ^7/15.1",109.080,"Ohio River",Primary,"Square enclosure"
693,"Fort Ancient Capitolium",39.4167,-81.4667,"φ^7/15.2",110.160,"Ohio River",Primary,"Circle enclosure"
694,"Fort Ancient Zane Plaza",39.4167,-81.4667,"φ^7/15.3",111.240,"Ohio River",Primary,"Parallel walls"
695,"Fort Ancient Tremper Mound",39.2333,-82.8333,"φ^7/15.4",112.320,"Scioto",Primary,"Pipe factory"
696,"Fort Ancient Bourneville",39.3167,-83.1167,"φ^7/15.5",113.400,"Paint Creek",Primary,"Village site"
697,"Fort Ancient Hopetown",39.2667,-83.1333,"φ^7/15.6",114.480,"Paint Creek",Primary,"Shriver satellite"
698,"Fort Ancient Anderson Works",39.1333,-84.0167,"φ^7/15.7",115.560,"Little Miami",Primary,"Largest enclosure"
699,"Fort Ancient Stubbs Park",39.1167,-84.0333,"φ^7/15.8",116.640,"Little Miami",Primary,"3200ft henge"
700,"Fort Ancient Madisonville",39.0833,-84.3167,"φ^7/15.9",117.720,"Little Miami",Primary,"Fort Ancient type"
701,"Southeastern Ceremonial Parkin",35.2667,-90.5667,"φ^6/5",19.800,"St Francis River",Primary,"Shell gorgets"
702,"SECC Marked Tree",35.2333,-90.5333,"φ^6/5.1",20.520,"St Francis River",Primary,"Crystal deposits"
703,"SECC Neeley's Ferry",35.2000,-90.5000,"φ^6/5.2",21.240,"St Francis River",Primary,"Marine shell"
704,"SECC Taylor Mound",35.1667,-90.4667,"φ^6/5.3",21.960,"St Francis River",Primary,"Copper plates"
705,"SECC Rose Mound",35.1333,-90.4333,"φ^6/5.4",22.680,"St Francis River",Primary,"Mica sheets"
706,"SECC Menard",35.1000,-90.4000,"φ^6/5.5",23.400,"St Francis River",Primary,"Quartz crystal"
707,"SECC Walls",35.0667,-90.3667,"φ^6/5.6",24.120,"St Francis River",Primary,"Engraved shells"
708,"SECC Chucalissa",35.0333,-90.3333,"φ^6/5.7",24.840,"St Francis River",Primary,"Gorgets cache"
709,"SECC Pinson Mounds",35.5167,-88.6833,"φ^6/6",25.920,"Forked Deer",Primary,"Saul's Mound"
710,"SECC Obion",36.4333,-89.0833,"φ^7/4",16.200,"Obion River",Primary,"Crystal cache"
711,"SECC Sellars Indian Mound",36.0833,-86.5667,"φ^6/7",30.600,"Stones River",Primary,"Shell gorgets"
712,"SECC Castalian Springs",36.3833,-86.3167,"φ^7/4.5",19.800,"Cumberland",Primary,"Mound+gorgets"
713,"SECC Gordontown",36.1333,-86.7833,"φ^6/8",38.880,"Cumberland",Primary,"Engraved shells"
714,"SECC Hurricane Mills",36.2000,-87.3167,"φ^7/5",23.400,"Tennessee River",Primary,"Gorgets"
715,"SECC Kellytown",36.2667,-87.3500,"φ^7/5.1",24.120,"Tennessee River",Primary,""
716,"Trans-Appalachian Toqua",35.5833,-84.3167,"φ^6/9",47.520,"Little Tennessee",Primary,"Platform mound"
717,"Trans-Appalachian Citico",35.0667,-84.2667,"φ^6/10",57.600,"Tennessee River",Primary,"Dallas phase"
718,"Trans-Appalachian Hiwassee Island",35.4667,-85.0333,"φ^6/11",64.800,"Hiwassee River",Primary,"Woodstock phase"
719,"Trans-Appalachian Ledford Island",35.4333,-84.9833,"φ^6/12",72.000,"Tennessee River",Primary,"Mouse effigy"
720,"Trans-Appalachian Mouse Creek",35.5000,-84.9167,"φ^6/13",79.200,"Tennessee River",Primary,"Dallas phase"
721,"Trans-Appalachian Hixon",35.0333,-85.2667,"φ^6/14",86.400,"Chattanooga",Primary,"Platform mound"
722,"Trans-Appalachian Martin Farm",35.0167,-85.2333,"φ^6/15",93.600,"Chattanooga",Primary,"Wilbanks phase"
723,"Trans-Appalachian Rymer",35.0000,-85.2000,"φ^6/16",100.800,"Chattanooga",Primary,""
724,"Trans-Appalachian Harrison",35.0167,-85.1833,"φ^6/17",108.000,"Chattanooga",Primary,""
725,"Trans-Appalachian Davis",35.0333,-85.1667,"φ^6/18",115.200,"Chattanooga",Primary,""
726,"Trans-Appalachian Hampton Place",35.0500,-85.1500,"φ^6/19",122.400,"Chattanooga",Primary,""
727,"Trans-Appalachian Taylor",35.0667,-85.1333,"φ^6/20",129.600,"Chattanooga",Primary,""
728,"Trans-Appalachian Alcos",35.0833,-85.1167,"φ^6/21",136.800,"Chattanooga",Primary,""
729,"Trans-Appalachian Nolan",35.1000,-85.1000,"φ^6/22",144.000,"Chattanooga",Primary,""
730,"Trans-Appalachian King",35.1167,-85.0833,"φ^6/23",151.200,"Chattanooga",Primary,""
731,"Trans-Appalachian Chestnut",35.1333,-85.0667,"φ^6/24",158.400,"Chattanooga",Primary,""
732,"Trans-Appalachian Peachtree",35.1500,-85.0500,"φ^6/25",165.600,"Chattanooga",Primary,""
733,"Cumberland French Lick",36.2833,-87.3167,"φ^7/6",28.800,"Cumberland River",Primary,"Gorgets cache"
734,"Cumberland Castalian Springs",36.3833,-86.3167,"φ^7/6.5",34.200,"Cumberland River",Primary,"Mound+artifacts"
735,"Cumberland Long Branch",36.4333,-86.2667,"φ^7/7",40.500,"Cumberland River",Primary,""
736,"Cumberland Meriwether Lewis",35.5000,-87.4833,"φ^6/26",172.800,"Tennessee River",Primary,"Gorgets"
737,"Cumberland Hurricane Mills",36.2000,-87.3167,"φ^7/7.5",45.900,"Tennessee River",Primary,"Shell engraved"
738,"Cumberland Kellytown",36.2667,-87.3500,"φ^7/8",52.920,"Tennessee River",Primary,"Crystal cache"
739,"Cumberland Drennan",36.3333,-87.3833,"φ^7/8.5",60.060,"Tennessee River",Primary,""
740,"Cumberland Link Farm",36.4000,-87.4167,"φ^7/9",69.300,"Tennessee River",Primary,""
741,"Cumberland Sellars Mound",36.0833,-86.5667,"φ^6/27",180.000,"Stones River",Primary,"150+ gorgets"
742,"Cumberland Gordontown",36.1333,-86.7833,"φ^6/28",187.200,"Cumberland",Primary,"Engraved shells"
743,"Cumberland Parsons",35.9167,-88.2333,"φ^6/29",194.400,"Tennessee River",Primary,"Mound+gorgets"
744,"Cumberland Shiloh Indian Mounds",35.1333,-88.3167,"φ^6/30",201.600,"Tennessee River",Primary,"Platform mound"
745,"Cumberland Savannah River Mounds",35.6167,-88.2333,"φ^6/31",208.800,"Tennessee River",Primary,""
746,"Cumberland Obion County Mounds",36.4333,-89.0833,"φ^7/10",75.600,"Obion River",Primary,"Crystal cache"
747,"Cumberland Pinson Mounds Ozier",35.5167,-88.6833,"φ^6/32",216.000,"Forked Deer",Primary,"Saul's satellite"
748,"Cumberland Pinson Mounds Saul's",35.5167,-88.6833,"φ^6/33",223.200,"Forked Deer",Primary,"72ft mound"
749,"Cumberland Pinson Mounds Dixon",35.5167,-88.6833,"φ^6/34",230.400,"Forked Deer",Primary,""
750,"Cumberland Pinson Mounds Mound 11",35.5167,-88.6833,"φ^6/35",237.600,"Forked Deer",Primary,""
751,"Middle Missouri Like-a-Fishhook",47.9667,-100.5167,"φ^9/3",432.000,"Missouri River",Primary,"Largest earthlodge"
752,"Middle Missouri Big Hidatsa",47.9000,-101.5167,"φ^9/3.1",448.320,"Heart River",Primary,"Hidatsa village"
753,"Middle Missouri Menoken",46.8167,-100.4833,"φ^9/2.5",360.000,"Knife River",Primary,"Fortified stockade"
754,"Middle Missouri Huff",46.7833,-100.4500,"φ^9/2.6",374.400,"Knife River",Primary,"Bastioned village"
755,"Middle Missouri Square Butte",47.8333,-100.5667,"φ^9/3.2",464.640,"Missouri River",Primary,"Mandans"
756,"Middle Missouri Elkhorn",47.8000,-100.5333,"φ^9/3.3",480.960,"Missouri River",Primary,""
757,"Middle Missouri Boley",47.7667,-100.5000,"φ^9/3.4",497.280,"Missouri River",Primary,"Earthlodge cluster"
758,"Middle Missouri Charge",47.7333,-100.4667,"φ^9/3.5",513.600,"Missouri River",Primary,""
759,"Middle Missouri Buffalo Pasture",47.7000,-100.4333,"φ^9/3.6",529.920,"Missouri River",Primary,""
760,"Middle Missouri Long Lake",47.6667,-100.4000,"φ^9/3.7",546.240,"Missouri River",Primary,""
761,"Sonota Hughes",44.3167,-100.3167,"φ^8/15",388.800,"South Dakota",Primary,"Platform mound"
762,"Sonota Mulberry Creek",44.2833,-100.2833,"φ^8/15.1",394.560,"South Dakota",Primary,""
763,"Sonota Schild",44.2500,-100.2500,"φ^8/15.2",400.320,"South Dakota",Primary,"Extended family"
764,"Sonota Langdon",44.2167,-100.2167,"φ^8/15.3",406.080,"South Dakota",Primary,""
765,"Sonota Pretty Stone",44.1833,-100.1833,"φ^8/15.4",411.840,"South Dakota",Primary,""
766,"Sonota Kurtz",44.1500,-100.1500,"φ^8/15.5",417.600,"South Dakota",Primary,""
767,"Sonota Phillips",44.1167,-100.1167,"φ^8/15.6",423.360,"South Dakota",Primary,""
768,"Sonota Ak Chin",44.0833,-100.0833,"φ^8/15.7",429.120,"South Dakota",Primary,""
769,"Sonota Swan Creek",44.0500,-100.0500,"φ^8/15.8",434.880,"South Dakota",Primary,""
770,"Sonota Crow Creek",43.9667,-99.6333,"φ^8/16",432.000,"Missouri River",Primary,"Massacre site"
771,"Hopewell Cheyenne",41.3833,-104.8167,"φ^8/2",33.600,"Plains outliers",Secondary,"Obsidian trade"
772,"Hopewell Spiro Exchange",35.3667,-94.6167,"φ^6/2",5.760,"Arkansas River",Secondary,"Marine shell cache"
773,"Hopewell Ohio River trade",38.6500,-90.0667,"φ^7/2",5.760,"Ohio Valley",Secondary,"Copper workshop"
774,"Hopewell Lake Superior copper",47.5167,-87.6167,"φ^9/1.5",216.000,"Keweenaw",Secondary,"Native copper source"
775,"Hopewell obsidian trade",37.9667,-119.7667,"φ^7/5",23.400,"Glass Mountain",Secondary,"Obsidian source"
776,"Hopewell mica trade",35.6167,-83.1167,"φ^6/4",16.200,"Great Smoky",Secondary,"Mica source"
777,"Hopewell shell trade",30.4167,-88.2667,"φ^10/12",86.400,"Gulf Coast",Secondary,"Marine shell"
778,"Hopewell grizzly bear trade",44.0167,-109.8167,"φ^8/4",86.400,"Yellowstone",Secondary,"Bear ceremonialism"
779,"Hopewell alligator trade",25.9167,-97.4167,"φ^-4/2",7.200,"Texas Gulf",Secondary,"Alligator symbolism"
780,"Hopewell shark teeth trade",31.3167,-81.4167,"φ^9/4",72.000,"Georgia Coast",Secondary,""
781,"Trans-Mississippi Great Bend Crow Creek",43.9667,-99.6333,"φ^8/16",432.000,"Missouri River",Primary,"Extended fortified"
782,"Trans-Mississippi Plum Bayou Toltec",34.6167,-91.8667,"φ^5/4",16.200,"Arkansas River",Primary,"Platform mound"
783,"Trans-Mississippi Menard",34.9167,-91.2667,"φ^5/5",19.800,"Arkansas River",Primary,"Quartz crystal"
784,"Trans-Mississippi Rose Mound",34.8833,-91.2333,"φ^5/5.1",20.520,"Arkansas River",Primary,"Mica sheets"
785,"Trans-Mississippi Taylor Mound",34.8500,-91.2000,"φ^5/5.2",21.240,"Arkansas River",Primary,"Copper plates"
786,"Trans-Mississippi Neeley's Ferry",34.8167,-91.1667,"φ^5/5.3",21.960,"Arkansas River",Primary,"Marine shell"
787,"Trans-Mississippi Parkin",34.7833,-91.1333,"φ^5/5.4",22.680,"Arkansas River",Primary,"Shell gorgets"
788,"Trans-Mississippi Marked Tree",34.7500,-91.1000,"φ^5/5.5",23.400,"Arkansas River",Primary,"Crystal deposits"
789,"Trans-Mississippi Walls",34.7167,-91.0667,"φ^5/5.6",24.120,"Arkansas River",Primary,"Engraved shells"
790,"Trans-Mississippi Chucalissa",34.6833,-91.0333,"φ^5/5.7",24.840,"Arkansas River",Primary,"Gorgets cache"
791,"Middle Missouri Fort Abraham Lincoln",46.7833,-100.8333,"φ^9/2",288.000,"Missouri River",Primary,"Mandans"
792,"Middle Missouri Double Ditch",47.1333,-101.3167,"φ^9/2.5",360.000,"Heart River",Primary,"Dual bastions"
793,"Middle Missouri Boley",47.7667,-100.5000,"φ^9/3",432.000,"Missouri River",Primary,"Earthlodge cluster"
794,"Middle Missouri Buffalo Pasture",47.7333,-100.4667,"φ^9/3.1",448.320,"Missouri River",Primary,""
795,"Middle Missouri Long Lake",47.7000,-100.4333,"φ^9/3.2",464.640,"Missouri River",Primary,""
796,"Middle Missouri Elkhorn Creek",47.6667,-100.4000,"φ^9/3.3",480.960,"Missouri River",Primary,""
797,"Middle Missouri Charge-Heart",47.6333,-100.3667,"φ^9/3.4",497.280,"Missouri River",Primary,""
798,"Middle Missouri Long Lake Satellite",47.6000,-100.3333,"φ^9/3.5",513.600,"Missouri River",Primary,""
799,"Middle Missouri Buffalo Pasture 2",47.5667,-100.3000,"φ^9/3.6",529.920,"Missouri River",Primary,""
800,"Middle Missouri Boley Satellite",47.5333,-100.2667,"φ^9/3.7",546.240,"Missouri River",Primary,""
801,"Caddoan Cedar Bluff",32.6167,-95.3167,"φ^10/12",86.400,"Sulphur River",Primary,"Platform mound"
802,"Caddoan George C Davis",32.3167,-94.9167,"φ^10/13",93.600,"Neches River",Primary,"Mound A-B complex"
803,"Caddoan Hatchel Mound",32.3167,-94.9167,"φ^10/13.1",97.200,"Neches River",Primary,"Mound B burial"
804,"Caddoan Mound C",32.3167,-94.9167,"φ^10/13.2",100.800,"Neches River",Primary,"Mound C platform"
805,"Caddoan Village Creek",32.2833,-94.8833,"φ^10/14",108.000,"Angelina River",Primary,"Palisaded village"
806,"Caddoan Whelan Mound",32.2500,-94.8500,"φ^10/15",129.600,"Angelina River",Primary,"Platform mound"
807,"Caddoan Alamo Mounds",32.2167,-94.8167,"φ^10/16",151.200,"Angelina River",Primary,"Mound cluster"
808,"Caddoan Nabers Mound",32.1833,-94.7833,"φ^10/17",172.800,"Angelina River",Primary,""
809,"Caddoan Lockhart Mound",32.1500,-94.7500,"φ^10/18",194.400,"Angelina River",Primary,""
810,"Caddoan Hughes Springs",32.1167,-94.7167,"φ^10/19",216.000,"Caddo Lake",Primary,""
811,"Four Corners Bluff",37.0167,-109.0833,"φ^6/15",103.680,"San Juan Basin",Primary,"Chaco outlier"
812,"Four Corners Edge of the Cedars",37.5667,-109.4167,"φ^7/4",19.800,"SE Utah",Primary,"Great house"
813,"Four Corners Blanding",37.6167,-109.4833,"φ^7/4.5",23.400,"SE Utah",Primary,"Test site"
814,"Four Corners Hovenweep",37.3833,-109.0833,"φ^7/2.5",16.200,"SE Utah",Primary,"Tower complex"
815,"Four Corners Mule Canyon",37.3167,-109.7500,"φ^7/3",21.600,"Cedar Mesa",Primary,"Twin kiva"
816,"Four Corners Butler Wash",37.2833,-109.7167,"φ^7/3.5",27.000,"Cedar Mesa",Primary,"Cliff dwellings"
817,"Four Corners Grand Gulch",37.4167,-109.9833,"φ^7/4",33.120,"Grand Gulch",Primary,"Basketmaker"
818,"Four Corners Kane Gulch",37.4500,-109.9500,"φ^7/4.5",39.240,"Grand Gulch",Primary,""
819,"Four Corners Bullet Canyon",37.4833,-109.9167,"φ^7/5",45.360,"Grand Gulch",Primary,""
820,"Four Corners Sheik's Canyon",37.5167,-109.8833,"φ^7/5.5",51.480,"Grand Gulch",Primary,""
821,"Plains Great Bend Arne",38.3167,-98.7833,"φ^7/8",52.920,"Arkansas River",Primary,"Wichita fortified"
822,"Plains Great Bend Lovell",38.2833,-98.7500,"φ^7/8.5",60.060,"Arkansas River",Primary,""
823,"Plains Great Bend Fuchs",38.2500,-98.7167,"φ^7/9",69.300,"Arkansas River",Primary,""
824,"Plains Great Bend Kembel",38.2167,-98.6833,"φ^7/9.5",78.540,"Arkansas River",Primary,""
825,"Plains Great Bend Whiteford",38.1833,-98.6500,"φ^7/10",87.780,"Arkansas River",Primary,""
826,"Plains Great Bend Little River",38.1500,-98.6167,"φ^7/10.5",97.020,"Arkansas River",Primary,""
827,"Plains Great Bend Moline",38.1167,-98.5833,"φ^7/11",106.260,"Arkansas River",Primary,""
828,"Plains Great Bend Jenkins",38.0833,-98.5500,"φ^7/11.5",115.500,"Arkansas River",Primary,""
829,"Plains Great Bend Palmer",38.0500,-98.5167,"φ^7/12",124.740,"Arkansas River",Primary,""
830,"Plains Great Bend Garther",38.0167,-98.4833,"φ^7/12.5",133.980,"Arkansas River",Primary,""
831,"Easter Island Outlier Sala y Gomez",26.4667,-105.3167,"φ^4/5",86.400,"Eastern Pacific",Secondary,"Submerged platforms"
832,"Easter Island Outlier Morokai",25.1333,-105.3167,"φ^4/4",69.300,"Eastern Pacific",Secondary,"Seamount ruins"
833,"Easter Island Outlier Malpelo",4.0000,-81.5667,"φ^-1/10",25.920,"Eastern Pacific",Secondary,"Potential outliers"
834,"Gobekli Tepe Outlier Killik",37.3167,38.9167,"φ^6/1.2",0.852,"Taş Tepeler",Primary,"T-pillars"
835,"Gobekli Tepe Outlier Taşlı Tepe",37.3333,38.9333,"φ^6/1.3",0.936,"Taş Tepeler",Primary,"Carvings"
836,"Gobekli Tepe Outlier Harbetsuvan",37.3500,38.9500,"φ^6/1.4",1.020,"Taş Tepeler",Primary,"Enclosures"
837,"Gobekli Tepe Outlier Sefer Tepe",37.3667,38.9667,"φ^6/1.5",1.104,"Taş Tepeler",Primary,"PPN Neolithic"
838,"Gobekli Tepe Outlier Ömerli",37.3833,38.9833,"φ^6/1.6",1.188,"Taş Tepeler",Primary,"Human statue"
839,"Gobekli Tepe Outlier Yekta",37.4000,39.0000,"φ^6/1.7",1.272,"Taş Tepeler",Primary,"Basalt pillars"
840,"Nazca Outlier Palpa Lines",-14.4667,-75.2167,"φ^-5/1.1",0.072,"Nazca-Palpa",Primary,"Astronomical lines"
841,"Nazca Outlier Acaracocha",-14.5333,-75.1833,"φ^-5/1.2",0.096,"Nazca-Palpa",Primary,"Geoglyphs"
842,"Nazca Outlier Ventilla",-15.3833,-75.0167,"φ^-5/1.3",0.108,"Nazca North",Primary,"Wari outpost"
843,"Nazca Outlier Cahuachi Satellite",-14.8667,-75.4333,"φ^-5/1.4",0.120,"Nazca Valley",Primary,"Pilgrim site"
844,"Nazca Outlier La Dama",-14.7333,-75.4167,"φ^-5/1.5",0.132,"Nazca Valley",Primary,"Dancer figures"
845,"Nazca Outlier El Árbol",-14.7167,-75.4333,"φ^-5/1.6",0.144,"Nazca Valley",Primary,"Tree+whale"
846,"Nazca Outlier Majuelo",-14.7000,-75.4500,"φ^-5/1.7",0.156,"Nazca Valley",Primary,"Hands figure"
847,"Nazca Outlier Hummingbird",-14.6833,-75.4667,"φ^-5/1.8",0.168,"Nazca Valley",Primary,"Iconic geoglyph"
848,"Nazca Outlier Parrot",-14.6667,-75.4833,"φ^-5/1.9",0.180,"Nazca Valley",Primary,"Red macaw"
849,"Nazca Outlier Pelican",-14.6500,-75.5000,"φ^-5/2",0.192,"Nazca Valley",Primary,"Bird figure"
850,"Nazca Outlier Killer Whale",-14.6333,-75.5167,"φ^-5/2.1",0.204,"Nazca Valley",Primary,"Orca geoglyph"
851,"Caral Aspero",11.4167,-77.4500,"φ^-3/2",3.240,"Supe Valley",Primary,"Platform mounds"
852,"Caral Chupaca",11.3833,-77.4167,"φ^-3/2.1",3.456,"Supe Valley",Primary,""
853,"Caral Lomas de Lúgar",11.3500,-77.3833,"φ^-3/2.2",3.672,"Supe Valley",Primary,""
854,"Caral Bandurria",11.3167,-77.3500,"φ^-3/2.3",3.888,"Supe Valley",Primary,"Oldest Caral"
855,"Caral Caral Norte",11.2833,-77.3167,"φ^-3/2.4",4.104,"Supe Valley",Primary,""
856,"Caral Huaricanga",11.2500,-77.2833,"φ^-3/2.5",4.320,"Supe Valley",Primary,""
857,"Caral Pueblo Mayor",11.2167,-77.2500,"φ^-3/2.6",4.536,"Supe Valley",Primary,""
858,"Caral Pueblo Santo",11.1833,-77.2167,"φ^-3/2.7",4.752,"Supe Valley",Primary,""
859,"Caral Miraya",11.1500,-77.1833,"φ^-3/2.8",4.968,"Supe Valley",Primary,""
860,"Caral Vichama",11.1167,-77.1500,"φ^-3/2.9",5.184,"Supe Valley",Primary,"Relief carvings"
861,"Caral Allpacuna",11.0833,-77.1167,"φ^-3/3",5.400,"Supe Valley",Primary,""
862,"Caral Cotosh",10.8167,-77.3833,"φ^-3/3.1",5.616,"Huaura Valley",Primary,"Flute cache"
863,"Caral Paredones",10.7833,-77.3500,"φ^-3/3.2",5.832,"Huaura Valley",Primary,""
864,"Caral Áspero Loma Alta",11.4167,-77.4500,"φ^-3/3.3",6.048,"Supe Valley",Primary,""
865,"Caral Áspero Loma Sur",11.4000,-77.4333,"φ^-3/3.4",6.264,"Supe Valley",Primary,""
866,"Caral Áspero Huaca Loma",11.3833,-77.4167,"φ^-3/3.5",6.480,"Supe Valley",Primary,""
867,"Caral Áspero Huaca A",11.3667,-77.4000,"φ^-3/3.6",6.696,"Supe Valley",Primary,""
868,"Caral Áspero Huaca B",11.3500,-77.3833,"φ^-3/3.7",6.912,"Supe Valley",Primary,""
869,"Caral Áspero Huaca C",11.3333,-77.3667,"φ^-3/3.8",7.128,"Supe Valley",Primary,""
870,"Caral Áspero Huaca D",11.3167,-77.3500,"φ^-3/3.9",7.344,"Supe Valley",Primary,""
871,"Caral Áspero Huaca E",11.3000,-77.3333,"φ^-3/4",7.560,"Supe Valley",Primary,""
872,"Caral Áspero Huaca F",11.2833,-77.3167,"φ^-3/4.1",7.776,"Supe Valley",Primary,""
873,"Caral Áspero Huaca G",11.2667,-77.3000,"φ^-3/4.2",7.992,"Supe Valley",Primary,""
874,"Caral Áspero Huaca H",11.2500,-77.2833,"φ^-3/4.3",8.208,"Supe Valley",Primary,""
875,"Caral Áspero Huaca I",11.2333,-77.2667,"φ^-3/4.4",8.424,"Supe Valley",Primary,""
876,"Caral Áspero Huaca J",11.2167,-77.2500,"φ^-3/4.5",8.640,"Supe Valley",Primary,""
877,"Global Megalithic Carnac West",47.5969,-3.0639,"φ^7/1.1",1.404,"Atlantic Arc",Primary,"3,000+ menhirs"
878,"Global Megalithic Carnac Ménec",47.5969,-3.0639,"φ^7/1.2",1.620,"Atlantic Arc",Primary,"1,169 stones"
879,"Global Megalithic Carnac Kermario",47.5969,-3.0639,"φ^7/1.3",1.836,"Atlantic Arc",Primary,"Giant's row"
880,"Global Megalithic Carnac Kerlescan",47.5969,-3.0639,"φ^7/1.4",2.052,"Atlantic Arc",Primary,"Dolmen complex"
881,"Global Megalithic Carnac Tumulus St Michel",47.5969,-3.0639,"φ^7/1.5",2.268,"Atlantic Arc",Primary,"39m long"
882,"Global Megalithic Gavrinis",47.3833,-2.8833,"φ^7/1.6",2.484,"Gulf of Morbihan",Primary,"Engraved dolmen"
883,"Global Megalithic Locmariaquer",47.3833,-2.9333,"φ^7/1.7",2.700,"Gulf of Morbihan",Primary,"Table des Marchands"
884,"Global Megalithic Er Grah",47.6167,-3.3833,"φ^7/1.8",2.916,"Locmaria",Primary,"39m long"
885,"Global Megalithic Barnenez",48.6833,-3.5667,"φ^8/1.5",25.200,"Brittany North",Primary,"11 chambers"
886,"Global Megalithic Dissignac",47.6167,-2.3167,"φ^7/2",3.600,"Loire Estuary",Primary,"Tumulus 200x50m"
887,"PPN Göbekli Sister Ayn el Abdul",37.2167,38.9000,"φ^6/1.1",0.369,"Taş Tepeler",Primary,"Basalt pillars"
888,"PPN Göbekli Sister Derivish Gazi",37.2000,38.8833,"φ^6/1.11",0.402,"Taş Tepeler",Primary,"Enclosure complex"
889,"PPN Göbekli Sister Kilisik",37.1833,38.8667,"φ^6/1.12",0.435,"Taş Tepeler",Primary,"T-shaped pillars"
890,"PPN Göbekli Sister Üçağaçlı",37.1667,38.8500,"φ^6/1.13",0.468,"Taş Tepeler",Primary,"PPNB"
891,"PPN Göbekli Sister Yağmurbaba",37.1500,38.8333,"φ^6/1.14",0.501,"Taş Tepeler",Primary,"Carved stones"
892,"PPN Göbekli Sister Hamzan Tepe",37.1333,38.8167,"φ^6/1.15",0.534,"Taş Tepeler",Primary,"Human figures"
893,"PPN Göbekli Sister Sofular",37.1167,38.8000,"φ^6/1.16",0.567,"Taş Tepeler",Primary,"Neolithic"
894,"PPN Göbekli Sister Taşlı Tepe 2",37.1000,38.7833,"φ^6/1.17",0.600,"Taş Tepeler",Primary,"Satellite enclosure"
895,"Indus Ghaggar-Hakra Kalibangan",29.5167,74.1167,"φ^10/4",7.200,"Ghaggar-Hakra",Primary,"Fire altars"
896,"Indus Ghaggar-Hakra Banawali",29.5333,75.2000,"φ^10/4.1",7.560,"Ghaggar-Hakra",Primary,"Grid city"
897,"Indus Ghaggar-Hakra Rakhigarhi",29.2833,76.4000,"φ^10/4.2",7.920,"Ghaggar-Hakra",Primary,"Largest IVC"
898,"Indus Ghaggar-Hakra Farmana",28.9833,76.0833,"φ^10/4.3",8.280,"Ghaggar-Hakra",Primary,"Burials"
899,"Indus Ghaggar-Hakra Mitathal",28.8167,75.7667,"φ^10/4.4",8.640,"Ghaggar-Hakra",Primary,"Pottery"
900,"Indus Ghaggar-Hakra Bhirrana",29.5333,75.5667,"φ^10/4.5",9.000,"Ghaggar-Hakra",Primary,"Oldest Harappan"
901,"Mississippi Baytown Period Mound 1",36.2667,-89.6167,"Baytown φ^6/10",69.300,"Mississippi",Primary,"Baytown period"
902,"Mississippi Baytown Period Mound 2",36.2333,-89.5833,"φ^6/11",79.200,"Mississippi",Primary,"Platform series"
903,"Mississippi Baytown Period Mound 3",36.2000,-89.5500,"φ^6/12",92.400,"Mississippi",Primary,"Conical cluster"
904,"Mississippi Baytown Period Mound 4",36.1667,-89.5167,"φ^6/13",108.000,"Mississippi",Primary,""
905,"Mississippi Baytown Period Mound 5",36.1333,-89.4833,"φ^6/14",129.600,"Mississippi",Primary,""
906,"Mississippi Baytown Period Mound 6",36.1000,-89.4500,"φ^6/15",155.520,"Mississippi",Primary,""
907,"Mississippi Baytown Period Mound 7",36.0667,-89.4167,"φ^6/16",187.200,"Mississippi",Primary,""
908,"Mississippi Baytown Period Mound 8",36.0333,-89.3833,"φ^6/17",223.200,"Mississippi",Primary,""
909,"Mississippi Baytown Period Mound 9",36.0000,-89.3500,"φ^6/18",264.600,"Mississippi",Primary,""
910,"Mississippi Baytown Period Mound 10",35.9667,-89.3167,"φ^6/19",311.040,"Mississippi",Primary,"Extended series"
911,"Mississippi De Soto Mound",35.1333,-90.0583,"φ^6/20",360.000,"Mississippi",Primary,"Hernando de Soto"
912,"Mississippi Chucalissa Mounds",35.0333,-90.0333,"φ^6/21",432.000,"Mississippi",Primary,"Platform complex"
913,"Mississippi Parchman Place",34.3167,-90.5667,"φ^5/6",28.800,"Yazoo Basin",Primary,"Mound A largest"
914,"Mississippi Reno Brake",34.2833,-90.5333,"φ^5/6.1",29.880,"Yazoo Basin",Primary,""
915,"Mississippi Lake George",34.2500,-90.5000,"φ^5/6.2",31.320,"Yazoo Basin",Primary,""
916,"Mississippi Hollywood",34.2167,-90.4667,"φ^5/6.3",32.760,"Yazoo Basin",Primary,""
917,"Mississippi Malmaison",34.1833,-90.4333,"φ^5/6.4",34.200,"Yazoo Basin",Primary,""
918,"Mississippi Leflore",34.1500,-90.4000,"φ^5/6.5",35.640,"Yazoo Basin",Primary,""
919,"Mississippi Thornton",34.1167,-90.3667,"φ^5/6.6",37.080,"Yazoo Basin",Primary,""
920,"Mississippi Poisson",34.0833,-90.3333,"φ^5/6.7",38.520,"Yazoo Basin",Primary,""
921,"Mississippi Sycamore Bluff",34.0500,-90.3000,"φ^5/6.8",39.960,"Yazoo Basin",Primary,""
922,"Mississippi Montgomery",34.0167,-90.2667,"φ^5/6.9",41.400,"Yazoo Basin",Primary,""
923,"Mississippi Doddsville",33.9833,-90.2333,"φ^5/7",43.200,"Yazoo Basin",Primary,""
924,"Mississippi Leland",33.9500,-90.2000,"φ^5/7.1",45.540,"Yazoo Basin",Primary,""
925,"Mississippi Winterville Mounds",33.9167,-91.1667,"φ^5/7.2",47.880,"Yazoo Basin",Primary,"23 mounds"
926,"Mississippi Jaketown",33.3167,-91.1833,"φ^10/6",18.000,"Yazoo Basin",Primary,"Poverty Point culture"
927,"Mississippi Transylvania",32.8167,-91.3167,"φ^10/8.5",32.400,"Tensas Basin",Primary,""
928,"Mississippi Pecan Mound",32.7667,-91.2667,"φ^10/9",38.880,"Tensas Basin",Primary,""
929,"Mississippi Big Tensas",32.7000,-91.3000,"φ^10/14",108.000,"Tensas Basin",Primary,""
930,"Mississippi Big Bayou",32.5333,-91.3833,"φ^10/19",172.800,"Tensas Basin",Primary,""
931,"Mississippi Lower Lake",32.5000,-91.4000,"φ^10/20",216.000,"Tensas Basin",Primary,""
932,"Mississippi Frenchman's Bend",32.6167,-91.5167,"φ^10/6.8",28.800,"Ouachita",Primary,""
933,"Mississippi Maiden",32.7167,-91.3167,"φ^10/7",43.200,"Tensas Basin",Primary,""
934,"Mississippi Piacellville",32.7833,-91.5000,"φ^10/7.5",57.600,"Tensas Basin",Primary,""
935,"Mississippi Mound A Bayou",32.8500,-91.2333,"φ^10/8",72.000,"Tensas Basin",Primary,""
936,"Mississippi Sargent Mound",32.7667,-91.2667,"φ^10/9",86.400,"Tensas Basin",Primary,""
937,"Mississippi Laffite's Landing",32.7333,-91.2833,"φ^10/9.5",103.680,"Tensas Basin",Primary,""
938,"Mississippi Watson Brake",31.9500,-91.5667,"φ^10/6.5",28.800,"Northeast Louisiana",Primary,"11 mounds 3500 BCE"
939,"Mississippi Poverty Point",32.6350,-91.4083,"φ^10/5.3",21.600,"Bayou Maçon",Primary,"Bird effigy+6 rings"
940,"Mississippi Jaketown Satellite",33.3167,-91.2167,"φ^10/6.1",19.800,"Yazoo Basin",Primary,"Poverty Point outlier"
941,"Ohio Valley Tremper Mound",39.2333,-82.8333,"φ^7/1.8",3.888,"Scioto River",Primary,"500+ pipes"
942,"Ohio Valley Seip Mounds",39.4167,-83.0167,"φ^7/1.6",3.600,"Scioto Valley",Primary,"Great Circle enclosure"
943,"Ohio Valley Hopewell Mound Group",39.3833,-83.6667,"φ^7/2.5",7.200,"Paint Creek",Primary,"Platform mounds"
944,"Ohio Valley Liberty Works",39.3167,-83.1333,"φ^7/2.8",8.640,"Little Miami",Primary,"Square+circle 1180ft"
945,"Ohio Valley Shriver Circle",39.2667,-83.1333,"φ^7/2.4",6.480,"Paint Creek",Primary,"1040ft diameter"
946,"Ohio Valley Harness Mound",39.3833,-82.9333,"φ^7/1.9",4.680,"Scioto",Primary,"Bird effigy"
947,"Ohio Valley Conus Mound",39.3167,-83.0667,"φ^7/1.8",4.320,"Paint Creek",Primary,"Conical mound"
948,"Ohio Valley Greene County Group",39.6833,-83.8833,"φ^7/2.6",8.064,"Mad River",Primary,"Mound cluster"
949,"Ohio Valley Dunlap Works",39.6167,-83.8333,"φ^7/2.7",8.640,"Mad River",Primary,"Geometric enclosure"
950,"Ohio Valley Lancaster Group",39.7167,-82.6167,"φ^7/2.9",9.360,"Hocking Valley",Primary,"Mound precinct"
951,"Ohio Valley Story Mound",39.3167,-84.2667,"φ^7/5.5",25.920,"Great Miami",Primary,"67ft conical Adena"
952,"Ohio Valley Miamisburg Mound",39.6333,-84.1667,"φ^7/6",36.000,"Great Miami",Primary,"100ft conical"
953,"Ohio Valley Grave Creek Mound",39.8167,-80.9667,"φ^7/4",21.600,"Ohio River",Primary,"69ft conical largest"
954,"Ohio Valley Criel Mound",38.5000,-81.9667,"φ^7/3",18.000,"Kanawha Valley",Primary,"30ft conical"
955,"Ohio Valley Fort Hill",39.1000,-83.4833,"φ^7/10",75.600,"Ohio Brush Creek",Primary,"3-mile hilltop wall"
956,"Ohio Valley Newark Earthworks",40.0333,-82.4167,"φ^8/1.5",25.200,"Licking River",Primary,"Octagon+Circle 50 acres"
957,"Ohio Valley Serpent Mound",39.0333,-83.4333,"φ^7/1.2",2.160,"Ohio Brush Creek",Primary,"1348ft effigy mound"
958,"Ohio Valley Tremper Works",39.2333,-82.8333,"φ^7/1.7",3.888,"Scioto",Primary,"Pipe workshop complex"
959,"Ohio Valley Piketon Earthworks",39.0667,-82.9833,"φ^7/10.5",97.020,"Scioto",Primary,"D-shaped henge"
960,"Ohio Valley Chillicothe Mound 8",39.3333,-82.9833,"φ^7/4",21.600,"Scioto Valley",Primary,"Hopewell/Adena hybrid"
961,"Ohio Valley High Bank Works",39.4167,-83.0167,"φ^7/4.2",24.480,"Scioto Valley",Primary,"Octagon+Circle precise"
962,"Ohio Valley Madisonville",39.0833,-84.3167,"φ^7/15.9",151.200,"Little Miami",Primary,"Fort Ancient village"
963,"Ohio Valley Anderson Works",39.1333,-84.0167,"φ^7/7",52.920,"Little Miami",Primary,"Largest geometric enclosure"
964,"Ohio Valley Stubbs Park",39.1167,-84.0333,"φ^7/7.5",67.500,"Little Miami",Primary,"3200ft diameter henge"
965,"Ohio Valley Milford Works",39.1667,-84.0000,"φ^7/9.5",90.720,"Little Miami",Primary,"Wall+moon enclosure"
966,"Ohio Valley Fort Ancient",39.4333,-83.9167,"φ^7/6.5",49.680,"Little Miami",Primary,"215-acre walled complex"
967,"Ohio Valley Zanesville Mounds",39.9667,-82.0167,"φ^8/2",67.200,"Muskingum River",Primary,"Identical twin mounds"
968,"Ohio Valley Tarlton Mound",39.5833,-83.1833,"φ^7/11",106.260,"Pickaway",Primary,"Adena conical"
969,"Ohio Valley Bower Mound",39.3167,-83.7833,"φ^7/12",129.600,"Paint Creek",Primary,"Adena platform"
970,"Ohio Valley Salisbury Mound",39.3167,-83.7833,"φ^7/12.5",138.600,"Paint Creek",Primary,"Adjacent platform"
971,"Ohio Valley Wade Mound",39.3167,-83.7833,"φ^7/13",151.200,"Paint Creek",Primary,"Adena conical"
972,"Ohio Valley Champaign Mounds",40.1167,-83.7833,"φ^8/2.5",84.000,"Mad River",Primary,"Mound cluster"
973,"Ohio Valley Licking County Mounds",40.0667,-82.4167,"φ^8/3",100.800,"Licking River",Primary,"Geometric group"
974,"Ohio Valley Chillicothe Mound 1",39.3333,-82.9833,"φ^7/14",151.200,"Scioto Valley",Primary,"Largest conical mound"
975,"Ohio Valley Marietta Works",39.4167,-81.4667,"φ^7/15",172.800,"Ohio River",Primary,"Square+Circle enclosures"
976,"Ohio Valley Double Mound",39.9667,-82.0167,"φ^8/2.1",70.560,"Muskingum River",Primary,"Identical twins 35ft"
977,"Ohio Valley Tarlton Satellite",39.5500,-83.1500,"φ^7/11.5",115.500,"Pickaway",Primary,"Adena outlier"
978,"Ohio Valley Chillicothe Mound 2",39.3167,-82.9667,"φ^7/14.5",165.600,"Scioto Valley",Primary,"Secondary conical"
979,"Ohio Valley Chillicothe Mound 3",39.3333,-82.9833,"φ^7/14.6",167.760,"Scioto Valley",Primary,"Group complex"
980,"Ohio Valley Chillicothe Mound 4",39.3500,-83.0000,"φ^7/14.7",169.920,"Scioto Valley",Primary,""
981,"Ohio Valley Chillicothe Mound 5",39.3667,-83.0167,"φ^7/14.8",172.080,"Scioto Valley",Primary,""
982,"Ohio Valley Chillicothe Mound 6",39.3833,-83.0333,"φ^7/14.9",174.240,"Scioto Valley",Primary,""
983,"Ohio Valley Chillicothe Mound 7",39.4000,-83.0500,"φ^7/15",176.400,"Scioto Valley",Primary,""
984,"Ohio Valley High Bank Satellite",39.4333,-83.0333,"φ^7/4.3",26.280,"Scioto Valley",Primary,"Octagon extension"
985,"Ohio Valley Greene County Satellite",39.7000,-83.9000,"φ^7/2.8",10.080,"Mad River",Primary,"Mound cluster"
986,"Ohio Valley Lancaster Satellite 1",39.7333,-82.6333,"φ^7/3",18.000,"Hocking Valley",Primary,""
987,"Ohio Valley Lancaster Satellite 2",39.7500,-82.6500,"φ^7/3.1",19.800,"Hocking Valley",Primary,""
988,"Ohio Valley Piketon Satellite",39.0500,-82.9667,"φ^7/10.6",102.960,"Scioto",Primary,"D-shaped extension"
989,"Ohio Valley Fort Ancient Satellite",39.4167,-83.9333,"φ^7/6.6",54.000,"Little Miami",Primary,"215-acre extension"
990,"Ohio Valley Marietta Satellite",39.4333,-81.4833,"φ^7/15.1",181.440,"Ohio River",Primary,"Square enclosure"
991,"Ohio Valley Madisonville Satellite",39.0667,-84.3333,"φ^7/16",194.400,"Little Miami",Primary,"Fort Ancient outlier"
992,"Ohio Valley Anderson Satellite",39.1500,-84.0333,"φ^7/7.1",57.600,"Little Miami",Primary,"Geometric outlier"
993,"Ohio Valley Stubbs Park Satellite",39.1000,-84.0500,"φ^7/7.6",72.720,"Little Miami",Primary,"Henge extension"
994,"Ohio Valley Milford Satellite",39.1833,-84.0167,"φ^7/9.6",97.200,"Little Miami",Primary,"Wall+moon outlier"
995,"Ohio Valley Fort Hill Satellite",39.0833,-83.5000,"φ^7/10.1",82.080,"Ohio Brush Creek",Primary,"Hilltop wall extension"
996,"Carnac Satellite Alignments",47.5833,-3.0500,"φ^7/1.9",3.336,"Atlantic Arc",Primary,"2,000+ additional menhirs"
997,"Carnac Satellite Tumulus",47.6000,-3.0667,"φ^7/2.1",4.032,"Atlantic Arc",Primary,"Secondary chambered tomb"
998,"Barnenez Satellite Cairn 1",48.6667,-3.5500,"φ^8/1.6",28.800,"Brittany North",Primary,"Passage grave"
999,"Barnenez Satellite Cairn 2",48.6833,-3.5667,"φ^8/1.7",31.680,"Brittany North",Primary,"11-chamber extension"
1000,"Global Megalithic Network Capstone",47.6167,-3.0667,"φ^7/2",4.800,"World Harmonic Grid",Primary,"1000th site - CARNAC COMPLEX"
1001,"PPN Taş Tepeler Harbetsuvan Tepesi",37.2833,38.9333,"φ^6/1.8",2.916,"Taş Tepeler Master",Primary,"Master T-pillar site"
1002,"PPN Taş Tepeler Ömerli Höyük",37.3167,38.9500,"φ^6/1.9",3.132,"Taş Tepeler Master",Primary,"Full enclosure complex"
1003,"PPN Taş Tepeler Yağmurbaba Tepesi",37.3333,38.9667,"φ^6/2",3.600,"Taş Tepeler Master",Primary,"Relief carvings"
1004,"PPN Taş Tepeler Sofular Höyük",37.3500,38.9833,"φ^6/2.1",3.888,"Taş Tepeler Master",Primary,"PPNB transition"
1005,"PPN Taş Tepeler Taşlı Tepe III",37.3667,39.0000,"φ^6/2.2",4.176,"Taş Tepeler Master",Primary,"Basalt monoliths"
1006,"Indus Valley Outlier Padri",21.1333,71.5000,"φ^-2/4",3.888,"Gujarat Rann",Primary,"Early Harappan"
1007,"Indus Valley Outlier Vagjpura",22.3333,70.8333,"φ^-2/3.5",3.024,"Kutch coast",Primary,"Dockyard precursor"
1008,"Indus Valley Outlier Kanmer",23.3167,69.7333,"φ^-2/2.5",1.920,"Great Rann",Primary,"Fortified"
1009,"Indus Valley Outlier Desalpur",23.4667,69.6667,"φ^-2/2",1.440,"Kutch",Primary,"Citadel"
1010,"Indus Valley Outlier Nageshwar",22.6667,69.5833,"φ^-2/1.5",0.960,"Shell working",Primary,""
1011,"Mississippi Final Mound A Bayou 2",32.8500,-91.2333,"φ^10/8.1",75.600,"Tensas Final",Primary,"Extended cluster"
1012,"Mississippi Final Pecan Grove 2",32.6333,-91.3333,"φ^10/16.1",187.200,"Tensas Final",Primary,""
1013,"Mississippi Final Big Woods 2",32.6000,-91.3500,"φ^10/17.1",199.800,"Tensas Final",Primary,""
1014,"Mississippi Final Middle Lake 2",32.5667,-91.3667,"φ^10/18.1",211.680,"Tensas Final",Primary,""
1015,"Mississippi Final Big Bayou 2",32.5333,-91.3833,"φ^10/19.1",225.360,"Tensas Final",Primary,""
1016,"Mississippi Final Lower Lake 2",32.5000,-91.4000,"φ^10/20.1",238.320,"Tensas Final",Primary,""
1017,"Plains Village Final Boley 2",47.7333,-100.4667,"φ^9/3.8",564.480,"Missouri Final",Primary,"Extended earthlodges"
1018,"Plains Village Final Buffalo Pasture 3",47.7000,-100.4333,"φ^9/3.9",580.800,"Missouri Final",Primary,""
1019,"Plains Village Final Long Lake 2",47.6667,-100.4000,"φ^9/4",597.120,"Missouri Final",Primary,""
1020,"Plains Village Final Elkhorn 2",47.6333,-100.3667,"φ^9/4.1",613.440,"Missouri Final",Primary,""
1021,"Carnac Final Er Grah Extension",47.6167,-3.4000,"φ^7/2.3",4.968,"Atlantic Capstone",Primary,"Additional alignments"
1022,"Carnac Final Tumulus de Kercado",47.5833,-3.0500,"φ^7/2.4",5.184,"Atlantic Capstone",Primary,"Dolmen 85m long"
1023,"Barnenez Final Cairn 3",48.7000,-3.5833,"φ^8/1.8",35.280,"Brittany Capstone",Primary,"Passage grave"
1024,"Barnenez Final Cairn 4",48.7167,-3.6000,"φ^8/1.9",39.960,"Brittany Capstone",Primary,"Neolithic extension"
1025,"Global Megalithic Locmariaquer Er Grah",47.6167,-3.3833,"φ^7/2.5",5.400,"World Capstone",Primary,"39m long capstone"
1026,"Valcamonica Petroglyphs Rock 1",46.0333,10.3167,"φ^7/3",12.960,"Alpine Arc",Primary,"25,000+ figures"
1027,"Valcamonica Petroglyphs Rock 2",46.0500,10.3333,"φ^7/3.1",13.680,"Alpine Arc",Primary,"Rosette+warriors"
1028,"Valcamonica Petroglyphs Naquane",46.0167,10.3000,"φ^7/3.2",14.400,"Alpine Arc",Primary,"UNESCO master"
1029,"Valcamonica Petroglyphs Campestrini",46.0000,10.2833,"φ^7/3.3",15.120,"Alpine Arc",Primary,"10,000 figures"
1030,"Valcamonica Petroglyphs Foppe",45.9833,10.2667,"φ^7/3.4",15.840,"Alpine Arc",Primary,"Bronze Age"
1031,"Alta Norway Petroglyphs 1",60.6167,6.6500,"φ^11/2",360.000,"Nordic Arc",Primary,"Hunter carvings"
1032,"Alta Norway Petroglyphs 2",60.6000,6.6333,"φ^11/2.1",378.000,"Nordic Arc",Primary,"Whale hunters"
1033,"Alta Norway Petroglyphs 3",60.5833,6.6167,"φ^11/2.2",396.000,"Nordic Arc",Primary,"5,000 figures"
1034,"Alta Norway Petroglyphs 4",60.5667,6.6000,"φ^11/2.3",414.000,"Nordic Arc",Primary,"Boat petroglyphs"
1035,"Alta Norway Petroglyphs 5",60.5500,6.5833,"φ^11/2.4",432.000,"Nordic Arc",Primary,"4000 BCE"
1036,"Gobekli Petroglyph Extension Vulture",37.2231,38.9225,"φ^6/1.01",0.450,"Taş Tepeler Petroglyph",Primary,"Pillar 43"
1037,"Gobekli Petrog Scorpion Pillar",37.2231,38.9225,"φ^6/1.02",0.456,"Taş Tepeler Petroglyph",Primary,"Enclosure D"
1038,"Gobekli Petrog Fox Pillar",37.2231,38.9225,"φ^6/1.03",0.462,"Taş Tepeler Petroglyph",Primary,"Enclosure B"
